categorie,official_name,branch,name,contact:phone,contact:website,contact:email,ref:FR:SIRET,longitude,latitude,address_txt,opening_hours,insee,id,osm_id
mairie,Mairie - Abbéville-la-Rivière,,Mairie d'Abbéville-la-Rivière,+33 1 64 95 67 37,http://www.abbevillelariviere.fr,mairie-abbeville-la-riviere@wanadoo.fr,21910001300016,2.167075,48.346043,1 place de la Mairie 91150 Abbéville-la-Rivière,Mo 15:00-19:00; Fr 15:00-19:00,91001,8971767f-e50c-4d58-9e69-94e7a489f49a,node/273434840
mairie,Mairie - Ableiges,,Mairie d'Ableiges,+33 1 34 66 01 12,http://www.ableiges.fr,mairie.ableiges95@wanadoo.fr,21950002200013,1.97908997536,49.0854988098,Rue Gilles-de-Maupeou 95450 Ableiges,"Mo 09:00-12:30,15:00-18:00; Tu-We 09:00-12:00; Fr 09:00-12:30,15:00-18:00",95002,55e63c96-f8a4-424c-a9fd-52ddf515b6ef,way/313057979
mairie,Mairie - Ablis,,Mairie d'Ablis,+33 1 30 46 06 06,http://www.ablis.fr,mairie@ablis.fr,21780003600014,1.83281004429,48.51720047,8 rue de la Mairie 78660 Ablis,"Mo 09:00-12:00,15:00-18:00; Tu 09:00-12:00,15:00-18:00; We 09:00-12:00; Th-Fr 09:00-12:00,15:00-18:00; Sa 09:00-12:00",78003,c761b3fb-1ca7-4d30-bea4-6c81f7dd8030,way/110159229
mairie,Mairie - Ablon-sur-Seine,,Mairie d'Ablon-sur-Seine,+33 1 49 61 33 33,http://www.ablon-sur-seine.fr,,21940001700014,2.421987,48.724895,16 rue du Maréchal-Foch 94480 Ablon-sur-Seine,"Mo-We 09:00-12:30,14:00-17:30; Th 14:00-19:00; Fr 09:00-12:30,14:00-17:30",94001,beb21c87-ed67-41f3-8712-e36621bebe4a,way/62496024
mairie,Mairie - Achères,,Mairie d'Achères,+33 1 39 79 64 00,http://www.mairie-acheres78.fr,sgcourrier@mairie-acheres78.fr,21780005100179,2.07027006149,48.9607009888,6-8 rue Deschamps-Guérin 78260 Achères,"Mo-Fr 08:30-12:00,13:30-17:45; Sa 09:00-12:30",78005,c4b18efd-8c40-4c17-9210-f87f7d105462,way/110338496
mairie,Mairie - Achères-la-Forêt,,Mairie d'Achères-la-Forêt,+33 1 64 24 40 11,https://www.achereslaforet.com/,acheres.la.foret@orange.fr,21770001200016,2.56274008751,48.3404006958,58 rue du Closeau 77760 Achères-la-Forêt,Mo 08:30-12:00; Fr 08:30-12:00; Sa 08:30-12:00,77001,9c18fa54-3f3c-4344-9edc-200e2d71ef0a,node/4758032221
mairie,Mairie - Acoua,,Mairie d'Acoua,+262 2 69 62 18 81,,secretariat@mairiedeacoua.fr,20000871200016,45.059041,-12.724234,10 rue Jules Ferry 97630 Acoua,"Mo-Th 07:00-12:00,13:00-16:00; Fr 07:00-11:30",97601,0e140e49-c437-465e-b369-3ad4f97cf599,node/6565538985
mairie,Mairie - Adainville,,Mairie d'Adainville,+33 1 34 87 03 24,http://www.mairie-adainville.fr,mairie@mairie-adainville.fr,21780006900015,1.6531324,48.7227709,1 Grande rue 78113 Adainville,Mo 14:00-17:00; Tu 14:00-19:00; Th 14:00-17:00; Fr 14:00-16:00; Sa 10:00-12:00,78006,53fba667-2eb9-406e-bd80-e578096a2019,node/11036387245
mairie,Mairie - Aigremont,,Mairie d'Aigremont,+33 1 39 65 38 16,http://www.mairie-aigremont-78.fr,accueil@aigremont-78.fr,21780007700018,2.0181036,48.9021181,5 place du Château 78240 Aigremont,Mo-We 08:30-12:00; Fr 08:30-12:00; Sa 09:30-12:00,78007,fd43ff31-1fd2-439e-b1dc-81ea35c8a4fe,way/103957731
mairie,Mairie - Aincourt,,Mairie d'Aincourt,+33 1 34 76 71 12,http://www.aincourt.fr,mairie.aincourt@orange.fr,21950008900012,1.77626001835,49.0718002319,4 rue d'Arthies 95510 Aincourt,"Th 09:00-12:00,16:00-19:00; Mo-We 09:00-12:00; Fr 09:00-12:00",95008,b01da037-e547-48a7-a1f2-a346d5e63f14,node/1590040632
mairie,Mairie - Alfortville,,Mairie d'Alfortville,+33 1 58 73 29 00,https://www.alfortville.fr/,courrier@mairie-alfortville.fr,21940002500017,2.4195177,48.8054058,Place François-Mitterrand 94142 Alfortville Cedex,"Mo 08:45-12:00,13:30-17:30; Tu 08:45-12:00; We-Fr 08:45-12:00,13:30-17:30",94002,58b12f16-8cc8-4a84-aa59-1c6521f82d24,way/62558983
mairie,Mairie - Allainville-aux-Bois,,Mairie d'Allainville-aux-Bois,+33 1 30 59 00 03,http://www.allainville-aux-bois.fr,mairie-dallainville2@wanadoo.fr,21780009300015,1.89673995972,48.4567985535,4 rue Michel-Chartier 78660 Allainville-aux-Bois,Tu 14:00-18:00; Th 14:00-18:00,78009,560f6020-e6c3-47c6-8f57-0abc83854072,node/1942720431
mairie,Mairie - Ambleville,,Mairie d'Ambleville,+33 1 34 67 71 01,https://www.ambleville95.com/,mairie@ville-ambleville.fr,21950011300010,1.685670,49.148498,Rue de la Mairie 95710 Ambleville,Mo-Tu 08:30-16:30; We 10:00-18:00,95011,2eb6a393-8850-44f3-9fec-bae11796dcc0,way/403527820
mairie,Mairie - Amenucourt,,Mairie d'Amenucourt,+33 1 34 79 70 02,https://mairie-amenucourt.fr/,mairie.amenucourt@wanadoo.fr,21950012100013,1.6418891,49.1063158,1 route Saint-Léger 95510 Amenucourt,We 09:00-12:00; Th 14:00-18:00,95012,26c25932-af5b-4126-b70a-c4496ecea51c,way/406205381
mairie,Mairie - Amillis,,Mairie d'Amillis,+33 1 64 04 60 26,https://www.amillis.fr/,mairieamillis@orange.fr,21770002000019,3.128554,48.740699,Rue Georges-Renard 77120 Amillis,Mo-Tu 09:00-16:00; Th 09:00-16:00; Fr 09:00-12:30,77002,5001dc7a-ff4f-4ddd-813a-466c28423eec,node/4530951134
mairie,Mairie - Amponville,,Mairie d'Amponville,+33 1 64 24 31 55,,mairie.amponville@wanadoo.fr,21770003800011,2.52869009972,48.2789001465,15 rue Grande 77760 Amponville,Mo 16:00-18:30; Th 16:30-18:30; Sa 10:30-12:00,77003,adc4cfb3-e4ac-481f-8515-68a027a93fcd,node/4798913784
mairie,Mairie - Andelu,,Mairie d'Andelu,+33 1 34 87 42 15,http://www.mairie-andelu78.fr,mairie78013@mairie-andelu78.fr,21780013500014,1.82255005836,48.8783988953,Place de la Mairie 78770 Andelu,Tu 16:00-19:00; Th 16:00-18:00; Fr-Sa 10:00-12:00,78013,d77c2578-1bb3-4a53-9ad9-07ac8ac4599e,node/7745328250
mairie,Mairie - Andilly,,Mairie d'Andilly,+33 1 34 16 46 36,https://www.ville-andilly-95.fr/,secretariat@mairie-andilly.fr,21950014700059,2.3001855,49.0054772,Hôtel de Ville  1 rue René-Cassin 95580 Andilly,"Mo-Fr 08:30-12:30,13:30-17:00; Sa 09:00-11:45",95014,51ef36cf-075c-41b2-afec-58b7199879cb,node/7973094397
mairie,Mairie - Andrezel,,Mairie d'Andrezel,+33 1 64 06 11 21,https://andrezel77.fr/,mairie.andrezel@wanadoo.fr,21770004600014,2.812767,48.611371,28 rue Martin-IV 77390 Andrezel,Mo 13:30-16:30; We 17:30-19:00; Th 13:30-16:30; Sa 10:00-12:00,77004,834808f7-0cc5-4aa2-9efc-fd6c7dfdcda1,way/198857216
mairie,Mairie - Andrésy,,Mairie d'Andrésy,+33 1 39 27 11 00,http://www.andresy.com,mairie@andresy.com,21780015000013,2.06136989594,48.9818992615,Hôtel de Ville  4 boulevard Noël-Marc 78570 Andrésy,"Mo-Fr 08:45-12:00,13:30-17:15; Sa 08:45-12:00",78015,846ef08d-f759-4383-aae4-0f712a727016,way/132581986
mairie,Mairie - Angerville,,Mairie d'Angerville,+33 1 64 95 20 14,http://www.mairie-angerville.fr,accueil@mairie-angerville.fr,21910016100013,1.9987687,48.311267,34 rue Nationale 91670 Angerville,"Mo 13:30-17:30; Tu-Fr 08:30-12:00,13:30-17:30; Sa 08:30-12:00",91016,3172533b-266a-4eb3-a860-367ae11f385c,node/3210551936
mairie,Mairie - Angervilliers,,Mairie d'Angervilliers,+33 1 64 59 02 06,http://ville-angervilliers.fr,contact@ville-angervilliers.fr,21910017900015,2.06449007988,48.5914993286,1 rue du Château 91470 Angervilliers,Mo 16:00-19:00; We 09:00-12:00; Fr 14:00-16:00; Sa 09:00-12:00,91017,64759ce7-c455-4624-a7c1-0143ef528afc,node/3484254695
mairie,Mairie - Annet-sur-Marne,,Mairie d'Annet-sur-Marne,+33 1 60 26 02 79,http://www.annetsurmarne.com,maire@annetsurmarne.fr,21770005300010,2.722219944,48.925201416,38 rue Paul-Valentin 77410 Annet-sur-Marne,"Mo-Fr 08:30-12:00,13:30-17:30; Sa 08:30-12:00",77005,bf13e150-365a-44a1-b5f5-b39ea360c316,node/4798915912
mairie,Mairie - Anse-Bertrand,,Mairie d'Anse-Bertrand,+590 5 90 89 48 48,https://www.ansebertrand.fr/,commune@mairieansebertrand.fr,21971102500011,-61.5161584,16.4709755,Le Bourg 97121 Anse-Bertrand,"Mo-Tu 08:00-13:00,14:30-17:30; We 08:00-13:30; Th 08:00-13:00,14:30-17:30; Fr 08:00-13:30",97102,29efd88b-eaac-43b6-aad2-49a4b7811c80,way/44366455
mairie,Mairie - Antony,,Mairie d'Antony,+33 1 40 96 71 00,https://www.ville-antony.fr/,,21920002900011,2.2970508,48.753512,Place de l'Hôtel-de-Ville 92160 Antony,"Mo-Fr 08:30-12:00,13:30-17:30; Sa 09:00-12:00",92002,54260182-e2ff-4a92-891e-9d43b932cae8,way/80885607
mairie,Mairie - Apatou,,Mairie d'Apatou,+594 5 94 34 91 96,https://ville-apatou.fr/,urbanisme@ville-apatou.fr,21973360700010,-54.343792,5.155913,23 avenue du Général-de-Gaulle 97317 Apatou,"Mo 07:30-12:30,14:00-17:00; Tu-We 07:30-13:30; Th 07:30-12:30,14:00-17:00; Fr 07:30-13:30",97360,738bf0fc-a3a8-4cca-b27e-3449a9a262a9,way/288987623
mairie,Mairie - Arbonne-la-Forêt,,Mairie d'Arbonne-la-Forêt,+33 1 60 66 44 16,http://arbonnelaforet.fr/,mairie.arbonnelaforet@wanadoo.fr,21770006100013,2.56537008286,48.414100647,58 rue de la Mairie 77630 Arbonne-la-Forêt,"Mo 09:00-12:00,14:00-16:30; We 09:00-12:00,14:00-16:30; Th-Fr 09:00-12:00",77006,9b65803b-4bcc-4e75-8b5e-ac0b45716df7,way/113234280
mairie,Mairie - Arcueil,,Mairie d'Arcueil,+33 1 46 15 08 80,http://www.arcueil.fr,mairie@mairie-arcueil.fr,21940003300011,2.33730006218,48.8064002991,10 avenue Paul-Doumer 94110 Arcueil,"We 09:00-12:00,13:30-17:30; Th 13:30-19:00; Mo 09:00-12:00,13:30-17:30; Tu 09:00-17:30; Fr 09:00-12:00,13:30-17:30",94003,c177c786-4474-436a-9aa7-1492d5c7627e,way/39224047
mairie,Mairie - Argenteuil,,Mairie d'Argenteuil,+33 1 34 23 41 00,https://www.argenteuil.fr/fr,,21950018800012,2.249245,48.94691,12-14 boulevard Léon-Feix 95100 Argenteuil,Mo-We 08:30-17:30; Th 11:00-17:30; Fr 08:30-17:30; Sa 08:30-12:00,95018,5e27d725-abf2-4cc1-85fb-c7da1f2999c0,way/70342326
mairie,Mairie - Argentières,,Mairie d'Argentières,+33 1 64 06 01 30,https://argentieres77.wordpress.com/,mairie-argentieres77@wanadoo.fr,21770007900015,2.86980009079,48.6547012329,Place de l'Église 77390 Argentières,"Tu-We 09:00-12:00; Th 09:00-12:00,13:30-17:30; Fr 13:30-17:30",77007,4aca9232-ec73-4db2-8adf-c67fb26faf2c,node/4798916925
mairie,Mairie - Armentières-en-Brie,,Mairie d'Armentières-en-Brie,+33 1 64 35 51 99,https://armentieres-en-brie.fr/,mairie.armentieresenbrie@orange.fr,21770008700018,3.02154994011,48.9776992798,9 rue du Chef-de-Ville 77440 Armentières-en-Brie,"Mo-Tu 09:00-12:00,16:30-18:30; We 09:00-12:00; Th-Fr 09:00-12:00,16:30-18:30",77008,88f0cd29-0b15-45fd-b698-9c58a23f2a7a,node/4798915882
mairie,Mairie - Arnouville,,Mairie d'Arnouville,+33 1 30 11 16 16,https://arnouville95.fr/,sgeneral@arnouville95.org,21950019600130,2.4202668,48.9896288,15-17 rue Robert-Schuman 95400 Arnouville,"Mo-We 08:30-12:30,13:30-17:30; Th 13:00-18:30; Fr 08:30-12:30,13:30-17:00",95019,36d78a20-3e71-483e-a07c-9a57593e3b2d,node/281720908
mairie,Mairie - Arnouville-les-Mantes,,Mairie d'Arnouville-les-Mantes,+33 1 30 42 60 17,http://www.arnouville-les-mantes.fr,mairie.arnouville.les.mantes@wanadoo.fr,21780020000016,1.731183,48.911077,8 place de l'Église 78790 Arnouville-les-Mantes,We 15:00-18:00; Fr 16:00-19:00; Sa 09:00-11:00,78020,d82bdee0-f35d-40fe-8c44-3134bcc075dd,way/217921590
mairie,Mairie - Arpajon,,Mairie d'Arpajon,+33 1 69 26 15 05,http://www.arpajon91.fr,standard@arpajon91.fr,21910021100016,2.2484735,48.5891648,70 Grande rue 91290 Arpajon,"Fr 08:45-12:30,13:30-16:45; Mo-Th 08:45-12:30,13:30-17:45",91021,fc4d7ff3-071e-43e3-ab40-c4ca9bf31c86,way/136136316
mairie,Mairie - Arrancourt,,Mairie d'Arrancourt,+33 1 69 58 80 81,,mairie@arrancourt.fr,21910022900018,2.161541,48.342037,3 place de la Mairie 91690 Arrancourt,Tu 17:00-19:00; Fr 15:00-18:00,91022,e4a2cb7c-22e0-4bba-ad27-4e192cc8714f,node/276600869
mairie,Mairie - Arronville,,Mairie d'Arronville,+33 1 34 66 51 63,http://www.arronville.fr,arronville@wanadoo.fr,21950023800015,2.10873007774,49.1861000061,12 rue de la Mairie 95810 Arronville,"Mo 09:00-12:00,14:00-16:00; Th 09:00-12:00,14:00-16:00; Sa 10:00-12:00",95023,70cc346f-1a52-4e36-b9cf-567470ceccc4,way/437305612
mairie,Mairie - Arthies,,Mairie d'Arthies,+33 1 34 67 22 26,,,21950024600018,1.788083,49.094567,Rue de la Mairie 95420 Arthies,Mo 16:00-18:30; Fr 16:00-18:00,95024,8a0feb99-660b-4606-b520-e82c0e169d5f,node/1612321668
mairie,Mairie - Arville,,Mairie d'Arville,+33 1 64 28 71 61,,arville.mairie@wanadoo.fr,21770009500011,2.5483978,48.1882185,5 rue de l'École 77890 Arville,Mo 09:00-18:00; Tu 09:00-17:00; Th 09:00-18:00; Fr 09:00-15:00,77009,c80b3cae-1bcd-4fab-b8c4-af30e5ff9db6,node/3878136792
mairie,Mairie - Asnières-sur-Oise,,Mairie d'Asnières-sur-Oise,+33 1 30 35 41 41,http://www.ville-asnieres-sur-oise.fr,mairie@aso95.fr,21950026100017,2.355899,49.133238,20 rue d'Aval-Eau 95270 Asnières-sur-Oise,"Mo 09:00-12:00; Tu-Fr 09:00-12:00,14:00-17:00",95026,fcf0898f-d8bb-4350-968a-c58c1eb2a805,node/7266748503
mairie,Mairie - Asnières-sur-Seine,,Mairie d'Asnières-sur-Seine,+33 1 41 11 12 13,https://asnieres-sur-seine.fr/,,21920004500017,2.288989,48.910692,1 place de l'Hôtel-de-Ville 92600 Asnières-sur-Seine,Mo-Fr 08:30-17:30; Sa 09:00-11:45,92004,90b3deac-b4f6-4c48-92b4-d787a265ad19,way/70784250
mairie,Mairie - Athis-Mons,,Mairie d'Athis-Mons,+33 1 69 54 54 54,https://www.mairie-athis-mons.fr/,infocom@mairie-athis-mons.fr,21910027800015,2.3892009,48.7077774,Place du Général-de-Gaulle 91200 Athis-Mons,"Mo-Tu 08:30-12:30,13:30-17:00; We 13:30-17:00; Th-Fr 08:30-12:30,13:30-17:00; Sa 08:30-12:00",91027,b710d147-2aaf-44c2-8cdc-0a8a8ea67632,node/632238616
mairie,Mairie - Attainville,,Mairie d'Attainville,+33 1 39 91 05 36,https://attainville.fr/,mairie@attainville.fr,21950028700012,2.34557008743,49.0572013855,2 rue Daniel-Renault 95570 Attainville,"Mo-Fr 08:45-11:45,14:00-17:00",95028,4a7fdcc6-e419-4063-8205-10cd16c698dd,node/3866687487
mairie,Mairie - Aubepierre-Ozouer-le-Repos,,Mairie d'Aubepierre-Ozouer-le-Repos,+33 1 64 06 92 95,https://www.aubepierre-ozouer-le-repos.org,mairie-aubepierre-ozouer@wanadoo.fr,21770010300013,2.8883129,48.6319706,15 rue de Paradis 77720 Aubepierre-Ozouer-le-Repos,Mo 09:00-12:00; Tu 13:30-17:30; We 09:00-12:00; Fr 13:30-17:30; Sa 09:00-12:00,77010,cc0c76dd-24e2-4b31-ab38-e34ff9a19647,node/4798913798
mairie,Mairie - Aubergenville,,Mairie d'Aubergenville,+33 1 30 90 45 00,http://www.aubergenville.fr,mairienet@aubergenville.fr,21780029100015,1.85555005074,48.9584999084,1 avenue de la Division-Leclerc 78410 Aubergenville Cedex,"Mo 09:00-12:00,14:00-17:00; Tu 14:00-17:00; We-Fr 09:00-12:00,14:00-17:00; Sa 09:00-12:00",78029,40035c8b-1e32-47d7-b908-52dc982494a7,way/132362403
mairie,Mairie - Aubervilliers,,Mairie d'Aubervilliers,+33 1 48 39 52 00,https://www.aubervilliers.fr/,,21930001900011,2.3817895,48.91461,2 rue de la Commune-de-Paris 93300 Aubervilliers,Mo-Fr 08:30-17:00; Sa 08:30-12:00,93001,0706933e-c71d-409e-aa72-46db29fe49d3,relation/1131762
mairie,Mairie - Auffargis,,Mairie d'Auffargis,+33 1 34 57 86 20,http://www.mairie-auffargis.com,mairie.auffargis@wanadoo.fr,21780030900015,1.89342999458,48.7164993286,Place de la Mairie 78610 Auffargis,"Mo 08:30-12:00,14:00-17:30; Tu-We 08:30-12:00; Th 08:30-12:00,14:00-17:30; Fr 08:30-12:00,14:00-16:30; Sa 09:00-12:00",78030,965b9dae-810b-458d-8829-e065a9c14dcb,node/7235630125
mairie,Mairie - Aufferville,,Mairie d'Aufferville,+33 1 64 28 70 04,https://aufferville.fr/fr/,mairie.aufferville@laposte.net,21770011100016,2.60887002945,48.2150993347,33 rue Grande 77570 Aufferville,"Mo 09:30-12:00; Tu 09:30-12:00,14:00-19:00; Th 09:30-12:00,14:00-16:30; Fr 09:30-12:00; Sa 10:00-12:00",77011,ef92c209-beb0-41f9-8e14-6bb5839cf608,node/4798913800
mairie,Mairie - Auffreville-Brasseuil,,Mairie d'Auffreville-Brasseuil,+33 1 34 77 11 68,http://www.auffreville-brasseuil.fr,mairie@auffreville-brasseuil.fr,21780031700018,1.70879995823,48.9514007568,Rue du Village 78930 Auffreville-Brasseuil,Tu 14:00-17:00; Fr 14:00-19:00,78031,c5e073ce-a853-4e5d-b47a-e85959069e7f,node/700770060
mairie,Mairie - Augers-en-Brie,,Mairie d'Augers-en-Brie,+33 1 64 01 93 17,,mairie-augers-en-brie@orange.fr,21770012900018,3.355917,48.67889,1 rue de la Mairie 77560 Augers-en-Brie,Mo 17:00-19:00; Th 17:00-19:00,77012,1b8d4fb7-d5b8-4a4b-974c-f27cf186dde9,way/115290516
mairie,Mairie - Aulnay-sous-Bois,,Mairie d'Aulnay-sous-Bois,+33 1 48 79 63 63,https://www.aulnay-sous-bois.fr/,comexterne@aulnaysousbois.com,21930005000016,2.499119,48.933379,16 boulevard Félix-Faure 93602 Aulnay-sous-Bois Cedex,"Mo 08:30-17:30; Tu 08:30-12:00,13:30-17:30; We 08:30-17:30; Th-Fr 08:30-12:30,13:30-17:30; Sa 08:30-12:30",93005,55b6b285-896f-42a0-9caa-0d651d60817f,way/141732783
mairie,Mairie - Aulnay-sur-Mauldre,,Mairie d'Aulnay-sur-Mauldre,+33 1 30 90 85 40,https://aulnaysurmauldre.com/,viepratique@aulnay-sur-mauldre.fr,21780033300015,1.84367001057,48.9290008545,16 Grande rue 78126 Aulnay-sur-Mauldre,"Mo 08:30-12:00,14:00-18:00; Tu-Th 08:30-12:00; Fr 08:30-12:00,14:00-17:00; Sa 09:30-12:00",78033,2028a60f-1b43-45ab-b090-97e659d66e92,node/623022681
mairie,Mairie - Aulnoy,,Mairie d'Aulnoy,+33 1 64 03 19 69,,mairie.aulnoy@orange.fr,21770013700011,3.095059,48.840484,Place de la Mairie 77120 Aulnoy,Tu 14:00-18:00; Th 08:45-11:30; Fr 14:00-18:00,77013,220b2ae6-3a9e-4407-8743-ada464ae4ceb,node/4798913812
mairie,Mairie - Auteuil-le-Roi,,Mairie d'Auteuil-le-Roi,+33 1 34 87 43 15,http://www.mairie-auteuil-le-roi.fr,mairie.auteuil-le-roi@mairie-auteuil-le-roi.fr,21780034100042,1.81896996498,48.8405990601,25 Grande rue 78770 Auteuil,Tu 16:00-19:00; Th-Fr 14:00-17:00; Sa 10:00-12:00,78034,30528f52-a094-46ee-bb5a-4e37a92d04ca,node/2371102157
mairie,Mairie - Authon-la-Plaine,,Mairie d'Authon-la-Plaine,+33 1 64 95 51 07,,mairiedauthonlaplaine@orange.fr,21910035100010,1.9573541,48.450967,5 place de l'Église 91410 Authon-la-Plaine,"Mo-Tu 08:30-12:30,13:30-17:30; Th 09:00-12:00,14:00-19:00; Fr 08:30-12:30,13:30-17:30; Sa 09:00-12:00",91035,4c801a34-7e09-4794-9800-939f0271dbf3,node/3499063003
mairie,Mairie - Autouillet,,Mairie d'Autouillet,+33 1 34 87 43 59,http://www.autouillet.fr,mairie.autouillet@orange.fr,21780036600015,1.80316996574,48.8503990173,33 route des Châteaux 78770 Autouillet,Tu 11:00-12:00; Th 17:00-19:00; Fr 11:00-12:00,78036,d840597b-3190-421d-88a2-5f935da8d6c2,way/399547856
mairie,Mairie - Auvernaux,,Mairie d'Auvernaux,+33 1 64 93 80 16,,mairie@auvernaux.fr,21910037700015,2.49906992912,48.5652008057,5 place de l'Église 91830 Auvernaux,"We-Th 09:00-12:30,14:00-17:30",91037,8c5dd957-3a73-46ea-a9c2-59b8b08de72b,node/3510158104
mairie,Mairie - Auvers-Saint-Georges,,Mairie d'Auvers-Saint-Georges,+33 1 60 80 34 01,https://auvers-saint-georges.fr/,mairie@auvers-saint-georges.fr,21910038500018,2.21851992607,48.4925003052,Place du Général-Leclerc 91580 Auvers-Saint-Georges,Mo-Fr 14:00-17:00; Sa 09:00-12:00,91038,8770fee9-ce99-498d-b65d-d5f16ee31fa4,node/3499065098
mairie,Mairie - Auvers-sur-Oise,,Mairie d'Auvers-sur-Oise,+33 1 30 36 70 30,http://www.ville-auverssuroise.fr,sec.gen@ville-auverssuroise.fr,21950039400016,2.171149,49.070586,17 rue du Général-de-Gaulle 95430 Auvers-sur-Oise,"Fr 08:30-12:00,13:30-17:00; Mo-We 08:30-12:00,13:30-17:00; Th 08:30-12:00,13:30-18:00",95039,d8f60a04-07d1-4c93-8e02-346fa5452b64,way/147524439
mairie,Mairie déléguée - Gadancourt,,Mairie déléguée de Gadancourt,+33 1 30 39 20 13,https://avernes95.fr,mairie@avernes95.fr,20007644600018,1.872787,49.086745,39 Grande-Rue 95450 Avernes,"Mo 11:00-12:00,16:00-18:00; Tu 16:00-18:00; Th-Fr 16:00-18:00; Sa 10:00-12:00",95040,4c693cdc-ebfe-45ea-8b94-6304931ece78,node/3180965636
mairie,Mairie - Avon,,Mairie d'Avon,+33 1 60 71 20 00,http://www.avon77.com,mairie@avon77.com,21770014500014,2.7208826,48.4049351,8 rue Père-Maurice 77210 Avon,"Mo-Fr 08:30-11:45,13:30-17:00; Sa 08:30-11:45",77014,81c13e21-1384-4792-999f-3571f5b59022,way/286908768
mairie,Mairie - Avrainville,,Mairie d'Avrainville,+33 1 64 91 30 08,http://www.avrainville.fr,mairie@avrainville.fr,21910041900064,2.2466451,48.5629245,Château du Merle-Blanc  1 rue du Parc 91630 Avrainville,Mo-Th 09:00-13:00; Fr 13:30-19:00; Sa 09:00-12:30,91041,1bb49707-af84-4a18-ac77-2e934acc05e2,way/146292068
mairie,Mairie - Awala-Yalimapo,,Mairie d'Awala-Yalimapo,+594 5 94 34 76 76,,mairie@awala-yalimapo.fr,21973361500013,-53.932405,5.691046,2765 avenue du 31-Décembre-1988  Centre administratif 97319 Awala-Yalimapo,"Mo 08:00-14:30; Fr 08:00-14:00; Tu 08:00-13:00,14:00-17:30; We 08:00-14:30; Th 08:00-13:00,14:00-17:30",97361,74f7c925-e1cd-42d5-adba-9e5599e0c365,node/431261661
mairie,Mairie - Baby,,Mairie de Baby,+33 1 64 01 80 05,https://villagedebaby.fr,mairie@villagedebaby.fr,21770015200010,3.342543,48.395719,3 rue de la Mairie 77480 Baby,We-Th 17:00-19:00,77015,ea1146e8-4464-4c46-b511-377729e20aeb,node/4798913793
mairie,Mairie - Bagneaux-sur-Loing,,Mairie de Bagneaux-sur-Loing,+33 1 64 78 51 90,https://www.bagneauxsurloing.fr/,mairie@bagneauxsurloing.fr,21770016000013,2.70526003838,48.2307014465,Place de l'Hôtel-de-Ville 77167 Bagneaux-sur-Loing,"Mo-Tu 08:30-12:00,13:30-17:30; We 08:30-12:00,14:00-17:00; Th 08:30-12:00,13:30-17:30; Fr 08:30-12:00,14:00-16:30; Sa 10:00-12:00",77016,fe80cf5a-5e44-4003-b797-f49f4ce5f1ec,way/319347388
mairie,Mairie - Bagneux,,Mairie de Bagneux,+33 1 42 31 60 00,https://www.bagneux92.fr/,contact@mairie-bagneux.fr,21920007800216,2.304355,48.798558,57 avenue Henri-Ravera 92220 Bagneux,"Mo 08:30-12:00,13:30-17:00; Tu 13:30-17:00; We-Fr 08:30-12:00,13:30-17:00",92007,9c433d99-14ea-4cd0-bb20-3b8c2b3a5cf2,way/146243811
mairie,Mairie - Bagnolet,,Mairie de Bagnolet,+33 1 49 93 60 00,http://www.ville-bagnolet.fr,mairie@ville-bagnolet.fr,21930006800018,2.416931,48.86876,1 place Salvador-Allende 93171 Bagnolet Cedex,"Fr 13:30-17:00; Mo-Th 09:00-12:00,13:30-17:00; Sa 09:00-12:30",93006,b63ca7e7-8111-4f5d-b0d3-1c80b4f7ae64,relation/11750190
mairie,Mairie - Baie-Mahault,,Mairie de Baie-Mahault,+590 5 90 26 59 60,https://www.baiemahault.fr/,contact@baiemahault.fr,21971103300015,-61.5874352,16.2654712,Hôtel de Ville  Place Childéric Trinqueur 97122 Baie-Mahault,"Mo-Tu 08:00-14:00; We 08:00-12:30; Th 08:00-11:00,14:00-16:00; Fr 08:00-12:30",97103,dc71e8ca-b026-4369-9eee-f7a05ccb705b,way/178237246
mairie,Mairie - Baillet-en-France,,Mairie de Baillet-en-France,+33 1 34 69 82 64,http://www.bailletenfrance.jimdo.com,info@baillet-en-france.fr,21950042800012,2.2991561,49.0628845,1 rue Jean-Nicolas 95560 Baillet-en-France,"Mo 08:30-12:00,14:00-17:00; Th-Fr 08:30-12:00,14:00-17:00; Tu-We 08:30-12:00; Sa 08:30-12:00",95042,36206d4b-2326-4d78-bb4b-5fc528943d1e,way/403463738
mairie,Mairie - Baillif,,Mairie de Baillif,+590 5 90 99 11 70,https://ville-baillif.fr/,mairiedebaillif@ville-baillif.fr,21971104100018,-61.7414904,16.0301297,Rue des Anciennes Écoles  97123 Baillif,Mo-Fr 07:30-14:30,97104,7b620b63-86cf-4ff5-b396-6d18748c4f1b,way/41896036
mairie,Mairie - Bailly,,Mairie de Bailly,+33 1 30 80 07 55,https://www.mairie-bailly.fr/,mairie@mairie-bailly.fr,21780043200015,2.078873,48.838779,1 rue des Chênes 78870 Bailly,"Mo-We 09:00-12:00,14:00-17:00; Th 09:00-12:00; Fr 09:00-12:00,14:00-17:00; Sa 09:00-12:00",78043,31dbb0db-68c5-4be5-b65b-76f07dc04833,way/103879025
mairie,Mairie - Bailly-Romainvilliers,,Mairie de Bailly-Romainvilliers,+33 1 60 43 02 51,http://www.bailly-romainvilliers.fr,contact@bailly-romainvilliers.fr,21770018600018,2.8247398,48.8471425,51 rue de Paris 77700 Bailly-Romainvilliers,"Mo 09:00-12:30,14:00-17:30; Tu 09:00-12:30,15:30-17:30; We-Fr 09:00-12:30,14:00-17:30; Sa 09:00-12:00",77018,b1d96da6-34df-400b-822a-b01cf0bf0a29,node/4798915887
mairie,Mairie - Ballainvilliers,,Mairie de Ballainvilliers,+33 1 64 48 83 34,http://www.mairie-ballainvilliers.fr,public@mairie-ballainvilliers.fr,21910044300064,2.2893632,48.6765863,3 rue du Petit-Ballainvilliers 91160 Ballainvilliers,,91044,bc4ca010-37bc-4efb-95c9-e78db1135b3e,way/146218361
mairie,Mairie - Ballancourt-sur-Essonne,,Mairie de Ballancourt-sur-Essonne,+33 1 64 93 73 73,http://www.ville-ballancourt.fr,mairie@mairie-ballancourt.fr,21910045000010,2.38585996628,48.5256004333,2 rue de la Mairie 91614 Ballancourt-sur-Essonne Cedex,"Mo 13:30-17:30; Tu 08:30-12:00,13:30-17:30; We 08:30-12:00; Th 08:30-12:00,13:30-17:30; Fr-Sa 08:30-12:00",91045,a4b89d69-58ed-4d52-a6e4-20682e39ad6b,way/62997672
mairie,Mairie - Balloy,,Mairie de Balloy,+33 1 60 67 13 27,,mairie.balloy@laposte.net,21770019400012,3.14663,48.398089,Place de la Mairie 77118 Balloy,"Mo 08:00-12:00,13:30-18:00; Tu 13:30-18:00; We 08:00-12:00; Th 13:30-18:00; Fr 18:00-19:00",77019,fda3bfcf-b30b-4c94-9dc0-f0ffa29f1df1,way/227536419
mairie,Mairie - Bandraboua,,Mairie de Bandraboua,+262 2 69 62 54 18,http://www.mairie-bandraboua.fr,secretariat.direction@mairie-bandraboua.fr,20000872000019,45.12184,-12.704211,238  rue de l'Hôtel-de-Ville 97650 Bandraboua,"Mo-Th 07:00-12:00,13:00-16:00; Fr 07:00-11:30",97602,6dcba774-37ef-4378-bea5-b5d32a9b6866,node/8979785290
mairie,Mairie - Bandrélé (Mayotte),,Mairie de Bandrélé (Mayotte),+262 2 69 62 19 81,https://bandrele.yt/,contact@bandrele.yt,20000873800011,45.192585,-12.910777,41 rue Mro Patse 97660 Bandrele,"Mo-Th 07:00-12:00,13:00-15:45; Fr 07:00-11:00",97603,a7ff756e-4bd3-4126-8172-57140ee01026,node/6564540340
mairie,Mairie - Bannost-Villegagnon,,Mairie de Bannost-Villegagnon,+33 1 64 01 09 78,https://www.mairie-bannost-villegagnon77.com,mairie@bannost-villegagnon.fr,21770020200013,3.19201,48.67808,2 rue de la Gare 77970 Bannost-Villegagnon,Mo 16:00-18:30; We 15:30-17:30; Th 09:30-11:30,77020,6b5b72ca-77de-4f70-8900-f79ca6cb24c8,node/4798913792
mairie,Mairie - Banthelu,,Mairie de Banthelu,+33 1 34 67 46 92,,mairie.banthelu@wanadoo.fr,21950046900016,1.814292,49.126009,3 rue de la Mairie 95420 Banthelu,Tu 14:00-17:00; Fr 09:00-12:00,95046,76e9b9d6-708d-4026-b0d8-9c5c7fb03004,node/1467568769
mairie,Mairie - Barbey,,Mairie de Barbey,+33 1 60 96 85 33,,mairiedebarbey@wanadoo.fr,21770021000016,3.057691,48.364966,48 rue Grande 77130 Barbey,Tu 16:30-18:30; Th 10:00-12:00,77021,1e636d54-f3c1-41dd-85f9-ed1af2ca8052,node/4798915867
mairie,Mairie - Barbizon,,Mairie de Barbizon,+33 1 60 66 41 92,http://www.barbizon.fr,mairie-village@barbizon.fr,21770022800018,2.61017990112,48.4435997009,13 Grande rue 77630 Barbizon,Mo 14:00-18:00; Tu-Sa 09:00-12:00,77022,d50afb58-40ba-4454-8cfe-42d0abf9fd00,way/113288071
mairie,Mairie - Barcy,,Mairie de Barcy,+33 9 66 98 70 16,https://www.barcy77.fr/fr,mairie.barcy@orange.fr,21770023600011,2.8814248,49.0174703,Place Sainte-Geviève 77910 Barcy,Mo 15:30-19:30; We 08:00-13:00; Th 15:30-19:30,77023,bc7b42be-ec6a-4d7a-a618-fabf16e8c3a4,node/3842874863
mairie,Mairie - Basse-Pointe,,Mairie de Basse-Pointe,+596 5 96 78 50 44,https://villedebassepointe.fr,contact@villedebassepointe.fr,21972203000018,-61.1203363,14.8687313,22 rue du Docteur Hippolyte Morestin 97218 Basse-Pointe,"Mo-Tu 07:30-13:00,14:30-17:00; We 07:30-13:00; Th 07:30-13:00,14:30-17:00; Fr 07:30-13:00",97203,b7469735-36a1-405a-80c1-d6197f2d8cd9,way/178916464
mairie,Mairie - Basse-Terre,,Mairie de Basse-Terre,+590 5 90 80 56 56,https://www.ville-basseterre.fr/,contact@ville-basseterre.fr,21971105800012,-61.7322635650635,15.9971815501316,Hôtel-de-Ville Cours-Nolivos 97100 Basse-Terre,"Mo-Tu 07:30-12:00,13:30-17:00; We 07:30-12:30; Th 07:30-12:00,13:30-17:00; Fr 07:30-12:30",97105,597b1720-8653-4ef4-b838-4841be6e62f4,way/66440877
mairie,Mairie - Bassevelle,,Mairie de Bassevelle,+33 1 60 22 51 01,https://www.bassevelle.fr/,mairiebassevelle@wanadoo.fr,21770024400015,3.28842711449,48.9271202087,743 rue de la Mairie 77750 Bassevelle,Mo 16:00-17:30; Th 16:00-18:00,77024,bf28b298-8653-4574-8b0a-2b7cb2050964,node/4798916224
mairie,Mairie - Baulne,,Mairie de Baulne,+33 1 64 57 60 71,,baulne.mairie@wanadoo.fr,21910047600015,2.35961008072,48.4925003052,102 route de Corbeil 91590 Baulne,"Mo 09:00-11:45; Tu 14:00-17:45; Th 14:00-17:45; Fr 09:00-11:45,14:00-17:45; Sa 09:00-11:45",91047,ceae1b0c-81e6-4330-b580-79bac151c6e1,node/3499072811
mairie,Mairie - Bazainville,,Mairie de Bazainville,+33 1 34 94 29 29,http://www.mairie-bazainville.fr,mairie@mairie-bazainville.fr,21780048100012,1.666716,48.8042,25 Grand'rue 78550 Bazainville,Mo 08:30-11:30; Tu 14:00-17:30; We-Th 08:30-11:30; Fr 14:00-17:30; Sa 08:30-11:30,78048,762949f5-7e8d-4c2b-92c9-3927b5579cc2,node/988712796
mairie,Mairie - Bazeilles,,Mairie de Bazeilles,+33 3 24 27 19 12,https://www.bazeilles.com,mairie@bazeilles.com,20010232500012,4.9770554,49.6763219,Place de la République 08140 Bazeilles,"Mo-Th 09:00-12:00,15:00-17:00; Fr-Sa 10:00-12:00",08053,f41a7534-4726-4dbd-87eb-22a7265df94f ,node/1874175052
mairie,Mairie - Bazemont,,Mairie de Bazemont,+33 1 30 90 83 14,http://www.bazemont.fr,mairie.bazemont@orange.fr,21780049900014,1.8655500412,48.9283981323,3 rue d'Aulnay 78580 Bazemont,"Mo 09:00-12:00,13:30-17:00; Tu 13:30-17:00; Th 09:00-12:00,13:30-17:00; Fr 13:30-17:00; Sa 08:30-11:30",78049,484a9c9c-5c74-468a-8c1d-478a2cb1c099,node/11036356623
mairie,Mairie - Bazoches-lès-Bray,,Mairie de Bazoches-lès-Bray,+33 1 60 67 14 36,http://www.mairie-bazoches-les-bray.fr,bazoches.mairie@outlook.fr,21770025100010,3.18806004524,48.3984985352,4 place de l'Église 77118 Bazoches-lès-Bray,Mo 14:00-18:00; Th 14:00-18:00; Fr 13:30-18:00,77025,a29a7925-47ef-4067-a238-4dde33496e13,node/4798915547
mairie,Mairie - Bazoches-sur-Guyonne,,Mairie de Bazoches-sur-Guyonne,+33 1 34 86 11 53,https://www.bazoches-sur-guyonne.fr/,mairiebazoches@wanadoo.fr,21780050700014,1.857640028,48.7788009644,30 route de Chevreuse 78490 Bazoches-sur-Guyonne,Mo 10:00-12:00; Th 14:00-16:00,78050,c7441370-9f1d-4997-8b29-44bed8bc0eda,node/2383709781
mairie,Mairie - Beauchamp,,Mairie de Beauchamp,+33 1 30 40 45 45,https://www.ville-beauchamp.fr/,etat-civil@ville-beauchamp.fr,21950051900018,2.199008,49.011280,1 place Camille-Fouinat 95250 Beauchamp,"Mo 08:30-12:00,13:30-19:00; Tu-Th 08:30-12:00,13:30-17:30; Fr 08:30-12:00",95051,3e9d6704-8542-4ff2-8b5d-39d94f859d83,way/369393228
mairie,Mairie - Beauchery-Saint-Martin,,Mairie de Beauchery-Saint-Martin,+33 1 64 00 82 59,,mairie.beauchery@orange.fr,21770026900012,3.40341,48.615478,2 rue de la Tour-Maurouard 77560 Beauchery-Saint-Martin,Mo 12:00-13:30; Tu 17:00-19:00,77026,d9f90879-52f2-41d8-a9e0-534d09b68ad8,node/4798915893
mairie,Mairie - Beaumont-du-Gâtinais,,Mairie de Beaumont-du-Gâtinais,+33 1 64 29 90 33,http://www.beaumont-du-gatinais.fr,mairie.beaumont.du.gatinais@orange.fr,21770027700015,2.474809,48.13655,1 rue Montgaudier 77890 Beaumont-du-Gâtinais,Mo-Sa 09:00-12:00,77027,a1990c6f-d1f1-4141-87a7-03ac3d3f8bdc,way/115180931
mairie,Mairie - Beaumont-sur-Oise,,Mairie de Beaumont-sur-Oise,+33 1 30 28 79 79,https://www.beaumontsuroise.fr,accueil.mairie@beaumontsuroise.fr,21950052700011,2.284329,49.141678,29 rue de Paris 95260 Beaumont-sur-Oise,"Mo-We 08:30-12:00,13:30-17:30; Th 13:30-17:30; Fr 08:30-12:00,13:30-17:30; Sa 08:30-12:00",95052,2a3cb556-8961-450b-9b94-395f95453bb0,way/167629659
mairie,Mairie - Beautheil-Saints,,Mairie de Beautheil-Saints,+33 1 64 03 17 14,http://www.paysdecoulommiers.fr,mairie.beautheilsaints@orange.fr,20008162800014,3.04642009735,48.7597999573,Saints  24 Grande rue 77120 Beautheil-Saints,Mo-Tu 08:30-11:30; Th-Fr 08:30-11:30; Sa 09:00-11:30,77433,5a81c3c0-991f-44ef-a699-d17e79fe96ad,way/115175552
mairie,Mairie - Beauvoir,,Mairie de Beauvoir,+33 1 64 06 19 58,,beauvoir-mairie@wanadoo.fr,21770029300012,2.8626432,48.6448953,Rue du Fief 77390 Beauvoir,Mo 18:00-19:00; Th 14:30-15:30,77029,64f83220-e577-42ce-90b7-1dd2472c1239,way/362629172
mairie,Mairie - Bellefontaine,,Mairie de Bellefontaine,+33 1 34 71 01 76,http://www.bellefontaine.fr,mairiesecretariat@bellefontaine.fr,21950055000013,2.46606993675,49.0978012085,1 rue des Sablons 95270 Bellefontaine,Mo-Tu 10:00-12:00; Th-Fr 10:00-12:00,95055,9492daac-0ea2-4b97-bab5-197e2f232767,way/131930801
mairie,Mairie - Bellefontaine,,Mairie de Bellefontaine,+596 5 96 55 00 96,,mairie@ville-bellefontaine.fr,21972234500010,-61.1639,14.675,Place Simon-Charles-François 97222 Bellefontaine,"Mo 07:30-12:30,14:30-17:30; Tu-We 07:30-14:00; Th 07:30-12:30,14:30-17:30; Fr 07:30-13:00",97234,c4a22c3e-ccbd-4c9d-bc5f-45b45faba22d,way/125079898
mairie,Mairie - Bellot,,Mairie de Bellot,+33 1 64 04 81 98,http://www.bellot77.fr,mairie@bellot77.fr,21770030100013,3.318031,48.857068,1 place de l'Église 77510 Bellot,We 14:30-16:00; Fr 16:00-18:00,77030,c81f5264-19f8-4d90-8d9f-86a939bd6e02,node/4798915866
mairie,Mairie - Belloy-en-France,,Mairie de Belloy-en-France,+33 1 30 35 70 14,http://belloy-en-france.fr,mairie@belloy-en-france.fr,21950056800015,2.36787009239,49.0894012451,5 place Alphonse-Sainte-Beuve 95270 Belloy-en-France,"Mo-Tu 08:30-12:00; Th-Sa 08:30-12:00; We 08:30-12:00,13:30-17:45",95056,ceba0df7-70fa-49e1-9e9f-f50870203b36,node/3529756130
mairie,Mairie - Bennecourt,,Mairie de Bennecourt,+33 1 30 93 04 23,https://www.mairie-bennecourt.fr,accueil@mairie-bennecourt.fr,21780057200018,1.57071495056,49.0416488647,Rue de la Nourrée 78270 Bennecourt,"Mo-Tu 09:00-12:00,14:00-17:00; We 09:00-12:00; Th-Fr 09:00-12:00,14:00-17:00",78057,f5cc22a5-75bc-43e2-9004-115e9a9a3d43,way/601251739
mairie,Mairie - Bernay-Vilbert,,Mairie de Bernay-Vilbert,+33 1 64 25 65 61,https://bernay-vilbert.fr/,mairie-bernay-vilbert@wanadoo.fr,21770031900015,2.938944,48.673135,6 place du Buteau 77540 Bernay-Vilbert,"Tu-We 09:30-12:00,14:30-17:00; Fr 09:30-12:00,14:30-17:00; Sa 10:30-12:00",77031,3060e539-bc7e-415b-b580-9a32b41ebf10,way/229305691
mairie,Mairie - Bernes-sur-Oise,,Mairie de Bernes-sur-Oise,+33 1 34 70 03 11,http://www.bernes-sur-oise.fr,mairie@bernes95.fr,21950058400012,2.30096006393,49.1604003906,Place de la Mairie 95340 Bernes-sur-Oise,"Mo 15:00-17:30; Tu 09:00-12:00,15:00-17:30; We 09:00-12:00; Th-Fr 09:00-12:00,15:00-17:30; Sa 09:00-12:00",95058,07ee0672-d96f-4774-9072-7503603ca1e6,node/8168037599
mairie,Mairie - Berville,,Mairie de Berville,+33 1 34 66 52 63,http://www.berville95.fr,mairie.de.berville@wanadoo.fr,21950059200015,2.06347990036,49.1926002502,20 rue de Heurcourt 95810 Berville,Mo 16:15-18:30; Th 16:15-17:30,95059,b70e6155-d6dc-44d0-93c9-317b25f0ffb1,node/11043965810
mairie,Mairie - Bessancourt,,Mairie de Bessancourt,+33 1 30 40 44 44,https://www.ville-bessancourt.fr,,21950060000016,2.21688008308,49.0385017395,Place du 30-Août 95550 Bessancourt,"Mo-We 08:30-12:00,13:30-17:30; Th 13:30-17:30; Fr 08:30-12:00,13:30-17:30; Sa 09:30-12:00",95060,ed1482a5-90e3-41f2-8e14-50826a4ba4b3,way/103355502
mairie,Mairie - Beton-Bazoches,,Mairie de Beton-Bazoches,+33 1 60 58 50 00,,mairie-de-beton-bazoches3@wanadoo.fr,21770032700018,3.24733996391,48.7015991211,2 rue de l'Hôtel-de-Ville 77320 Beton-Bazoches,"Mo 10:00-12:30; Tu 09:00-12:00,18:00-19:30; Th-Fr 10:00-12:30",77032,225244ee-f6b9-43c1-a948-9cf53311b680,node/7618324588
mairie,Mairie - Beynes,,Mairie de Beynes,+33 1 34 91 06 20,http://www.beynes.fr,mairie@beynes.fr,21780062200011,1.875862,48.856287,Place du 8-Mai-1945 78650 Beynes,"Mo 09:00-12:30,14:30-17:30; Tu 14:30-19:00; We-Fr 09:00-12:30,14:30-17:30; Sa 09:00-12:00",78062,30d2e77c-ef7c-47d5-8ec1-d6a6269088b5,way/63065068
mairie,Mairie - Bezalles,,Mairie de Bezalles,+33 1 64 01 00 33,,mairiebezalles@orange.fr,21770033500011,3.24249601364,48.6782112122,Place de la Mairie 77970 Bezalles,Tu 17:00-19:00,77033,129237e7-24ed-4f75-a6df-93059d1e7a4a,way/148480154
mairie,Mairie - Bezons,,Mairie de Bezons,+33 1 79 87 62 00,https://www.ville-bezons.fr/a-la-une/,communication@mairie-bezons.fr,21950063400395,2.2155708,48.9279333,6 avenue Gabriel-Péri 95875 Bezons,"Mo 13:30-18:00; Tu-We 08:30-12:00,13:30-18:00; Th 13:30-18:00; Fr 08:30-12:00,13:30-17:00; Sa 08:30-12:00",95063,9eb6008b-eac3-43bc-b7d4-317cbaadda96,way/387315533
mairie,Mairie - Val-d'Usiers,,Mairie de Val-d'Usiers,+33 3 81 38 20 70,,mairie@valdusiers.fr,20010225900013,6.277424,46.971413,Goux-les-Usiers 9 rue des Écoles 25520 Val-d'Usiers,"Mo-Fr 10:00-12:00,14:00-16:00; Sa 10:00-12:00",25060,80093178-986c-488b-8b76-59b995747e75,way/158617134
mairie,Mairie - Bièvres,,Mairie de Bièvres,+33 1 69 35 15 50,https://www.bievres.fr/,contact@bievres.fr,21910064100014,2.2152085,48.7544392,Place de la Mairie 91570 Bièvres,"Mo 14:30-17:30; Tu-We 08:30-12:30,14:30-17:30; Th 08:30-12:30; Fr 08:30-12:30,14:30-17:30; Sa 08:30-12:30",91064,2b4625db-0190-43c9-bbfb-fedd9b4dd96d,way/70456515
mairie,Mairie - Blandy,,Mairie de Blandy,+33 1 64 99 58 58,,mairieblandy@wanadoo.fr,21910067400015,2.2574484,48.3136764,1 place Victor-Hugo 91150 Blandy,Tu 15:00-19:00; Th 15:00-19:00,91067,51728fb3-56f9-4ebc-ac73-d07c996f1ca8,way/330255741
mairie,Mairie - Blandy-les-Tours,,Mairie de Blandy-les-Tours,+33 1 60 66 90 23,https://www.blandy-les-tours.fr/,mairie@blandylestours.fr,21770034300015,2.7823316,48.5669067,1 place des Tours 77115 Blandy,Mo-Tu 16:00-18:00; Th-Fr 16:00-18:00; Sa 10:00-12:00,77034,62cf2ba0-fab3-496e-9c88-72609a7ac5e2,way/113274452
mairie,Mairie - Blaru,,Mairie de Blaru,+33 1 34 76 21 06,,ville.blaru@wanadoo.fr,21780068900010,1.478096,49.048511,8 rue de Vernon 78270 Blaru,"Mo-Fr 09:00-12:00,14:00-17:30",78068,82db40b4-60a6-41ac-835a-c4ffc5d46d89,way/110272675
mairie,Mairie - Blennes,,Mairie de Blennes,+33 1 64 31 93 31,https://www.blennes.fr/,mairie.blennes@wanadoo.fr,21770035000010,3.02164006233,48.2584991455,Rue des Moines 77940 Blennes,Mo 16:00-18:00; We 10:30-12:00; Th 16:00-18:00,77035,07e02456-a7e3-421f-935c-65c2d4002fd0,way/278594287
mairie,Mairie - Bobigny,,Mairie de Bobigny,+33 1 41 60 93 93,https://www.bobigny.fr/,,21930008400015,2.445042,48.906182,31 avenue du Président-Salvador-Allende 93000 Bobigny,Mo-Fr 08:30-17:00; Sa 09:00-11:45,93008,f91ec498-396d-4ea7-aa5c-c5ed2cfed87b,way/77744232
mairie,Mairie - Boigneville,,Mairie de Boigneville,+33 1 64 99 40 07,http://www.boigneville.fr,mairie.boigneville@wanadoo.fr,21910069000011,2.37689995766,48.3384017944,2 rue de Saint-Val 91720 Boigneville,"Mo-Tu 09:00-13:00; Th 09:00-13:00,14:00-19:00",91069,cce6d4f7-a970-4d11-ac7f-9aa1c9f4886f,way/146251587
mairie,Mairie - Boinville-en-Mantois,,Mairie de Boinville-en-Mantois,+33 1 30 42 63 94,https://boinville-en-mantois.fr,mairie@boinville-en-mantois.fr,21780070500014,1.75668001175,48.9295005798,2 rue du Clos-Doré 78930 Boinville-en-Mantois,Tu 18:00-19:30; Fr 13:30-15:30,78070,88017b91-97a7-4e5d-bf2b-1a5f5ff86270,way/240619108
mairie,Mairie - Boinville-le-Gaillard,,Mairie de Boinville-le-Gaillard,+33 1 30 59 11 42,https://www.boinville-le-gaillard.fr/,mairie@boinville-le-gaillard.fr,21780071300018,1.871601,48.493639,4 place du Prieuré 78660 Boinville-le-Gaillard,Mo-Tu 14:00-17:00; Th-Fr 14:00-17:00,78071,e2d710f7-4730-48a3-b10e-522bc55c536a,node/11046780844
mairie,Mairie - Boinvilliers,,Mairie de Boinvilliers,+33 1 34 76 30 94,http://www.boinvilliers.fr,,21780072100011,1.660761,48.917932,11 avenue du Vieux-Château 78200 Boinvilliers,"Tu 09:30-12:00; Th 09:30-12:00,18:00-19:00",78072,e08ab162-4680-4617-bbaa-493015077cfe,way/133498921
mairie,Mairie - Bois-Colombes,,Mairie de Bois-Colombes,+33 1 41 19 83 00,https://www.bois-colombes.fr,bois-colombes@bois-colombes.com,21920009400015,2.26764988899,48.9146003723,15 rue Charles-Duflos 92277 Bois-Colombes Cedex,"Mo-Fr 08:30-12:00,13:30-17:30; Sa 08:30-12:00",92009,414058d9-77a7-42f5-879d-c43e3bd915c2,way/79772811
mairie,Mairie - Bois-Herpin,,Mairie de Bois-Herpin,+33 1 64 95 85 35,,mairiedeboisherpin@orange.fr,21910075700018,2.2338263,48.3690977,25 Grande rue 91150 Bois-Herpin,We 09:00-12:00; Th 14:00-18:00,91075,aa5a665b-a489-4f5d-8697-2d5685e93e8c,node/3499103060
mairie,Mairie - Bois-d'Arcy,,Mairie de Bois-d'Arcy,+33 1 30 45 83 83,http://www.boisdarcy.fr,mairie@boisdarcy.fr,21780073900013,2.03104996681,48.8008003235,2 avenue Paul-Vaillant-Couturier 78390 Bois-d'Arcy,"Mo-We 08:30-12:00,13:30-17:30; Th 13:30-19:30; Fr 08:30-12:00,13:30-17:30; Sa 08:30-12:00",78073,4c308ad7-e8d9-40f5-ba9f-bbb995a6514c,way/85855836
mairie,Mairie - Bois-le-Roi,,Mairie de Bois-le-Roi,+33 1 60 59 18 00,https://www.ville-boisleroi.fr/,affaires-generales@ville-boisleroi.fr,21770037600015,2.69355010986,48.4760017395,4 avenue Paul-Doumer 77590 Bois-le-Roi,"Mo-Fr 09:00-12:00,14:00-17:00; Sa 09:00-12:00",77037,cf4dffdb-86a8-4c8e-8112-384f80b42e48,way/257237360
mairie,Mairie - Boisdon,,Mairie de Boisdon,+33 1 64 60 70 95,,secretariat@mairie-boisdon.fr,21770036800012,3.22804,48.683868,26 Grande-Rue 77970 Boisdon,Mo 16:00-17:15; Tu 08:45-10:45; Fr 15:30-18:00,77036,b0523068-4b94-4627-97d3-fab880de965b,way/148483791
mairie,Mairie - Boisemont,,Mairie de Boisemont,+33 1 34 42 34 98,https://ville-boisemont.fr/la-mairie,mairie@ville-boisemont.fr,21950074100018,2.00133991241,49.021900177,Rue de l'Église 95000 Boisemont,"Tu 09:00-12:00,14:00-17:00; We 14:00-17:00; Fr 09:00-12:00,14:00-17:00; Sa 09:00-12:00",95074,ef11eefa-00c3-43a9-886f-5b5445dba313,way/99361833
mairie,Mairie - Boissets,,Mairie de Boissets,+33 9 62 24 87 60,,mairie.boissets@boissets.fr,21780076200015,1.580844,48.860882,Rue Bastanière 78910 Boissets,Mo 15:00-18:00; Th 09:00-12:00; Sa 10:00-12:00,78076,4995d02e-2548-4742-8eea-b39f4831b35f,node/4684470445
mairie,Mairie - Boissettes,,Mairie de Boissettes,+33 1 64 37 83 05,http://www.boissettes.fr,mairie@boissettes.fr,21770038400019,2.6107156,48.5206946,3 place de Verdun 77350 Boissettes,We 09:15-12:00; Fr 09:00-12:00; Fr 14:00-18:00; Sa 09:00-12:00,77038,374dcdb1-0be9-4baf-95cf-9a00da7d6ae5,node/4798913799
mairie,Mairie - Boissise-la-Bertrand,,Mairie de Boissise-la-Bertrand,+33 1 64 38 20 21,https://boissise-la-bertrand.fr/fr,contact@mairie-boissiselabertrand.fr,21770039200012,2.5886900425,48.5293998718,2 rue François-Rolin 77350 Boissise-la-Bertrand,"Mo 13:30-18:00; Tu 09:00-12:00,13:30-18:00; We 09:00-12:00; Th 09:00-12:00,13:30-18:00; Fr 09:00-12:00",77039,b0e9bba4-8d66-48d3-88f9-588fc7f9469d,node/4798916923
mairie,Mairie - Boissise-le-Roi,,Mairie de Boissise-le-Roi,+33 1 60 65 44 00,https://www.mairie-boissise-le-roi.fr/,contact@mairie-boissise-le-roi.fr,21770040000013,2.57333993912,48.5288009644,11 rue du Château 77310 Boissise-le-Roi,"Mo-We 08:30-12:00,13:30-17:30; Th 08:30-12:00; Fr 08:30-12:00,13:30-17:00; Sa 09:00-12:00",77040,3444e703-ffea-4500-9228-9c2a51f23351,way/113301208
mairie,Mairie - Boissy-Mauvoisin,,Mairie de Boissy-Mauvoisin,+33 1 34 78 33 48,http://www.boissy-mauvoisin.fr,boissy-mauvoisin@wanadoo.fr,21780082000011,1.57989,48.9649009,12 rue des Tilleuls 78200 Boissy-Mauvoisin,Mo 15:00-18:00; Fr 10:00-12:00; We 10:00-12:00,78082,60eb6151-5819-4e03-a82a-b7750f660f9f,way/108151489
mairie,Mairie - Boissy-Saint-Léger,,Mairie de Boissy-Saint-Léger,+33 1 45 10 61 61,http://www.ville-boissy.fr,info@ville-boissy.fr,21940004100014,2.51286005974,48.7477989197,7 boulevard Léon-Révillon 94470 Boissy-Saint-Léger,"Mo-We 08:30-12:00,13:30-17:30; Th 13:30-17:30; Fr 08:30-12:00,13:30-17:30",94004,e9865b7f-ec64-4f72-8a8b-8dc327fefe9b,way/103514934
mairie,Mairie - Boissy-aux-Cailles,,Mairie de Boissy-aux-Cailles,+33 1 64 24 58 09,http://www.boissyauxcailles.fr,mairie.boissy-aux-cailles@wanadoo.fr,21770041800015,2.50473999977,48.3186988831,Place de l'Église 77760 Boissy-aux-Cailles,Tu 14:00-17:00; Th 14:00-17:00; Sa 10:00-12:00,77041,9129b03e-548d-40f7-bf33-7ebefdae4e88,node/4798915553
mairie,Mairie - Boissy-l'Aillerie,,Mairie de Boissy-l'Aillerie,+33 1 34 42 10 05,https://www.mairie-boissylaillerie.com/,contact@boissy-laillerie.fr,21950078200012,2.0303800106,49.0774993896,9 rue de la République 95650 Boissy-l'Aillerie,Mo 14:00-17:00; Tu-Fr 09:00-12:00; Sa 09:30-12:00,95078,e97f23dc-f900-4707-a866-3db801bdbcf0,way/435919943
mairie,Mairie - Boissy-la-Rivière,,Mairie de Boissy-la-Rivière,+33 1 64 95 63 19,https://boissy-la-riviere.fr/,mairie@boissy-la-riviere.fr,21910079900010,2.0999957,48.3643083,1 rue de la Mairie 91690 Boissy-la-Rivière,Tu-Fr 08:30-11:30; Sa 09:30-12:00,91079,209497e5-f7c7-4c54-94fc-acb6c76bedfe,node/281000444
mairie,Mairie - Boissy-le-Châtel,,Mairie de Boissy-le-Châtel,+33 1 64 03 08 16,https://www.boissy-le-chatel.com/,mairieboissylechatel@wanadoo.fr,21770042600018,3.136157,48.820974,3 place de la Mairie 77169 Boissy-le-Châtel,"Mo-Tu 08:45-12:30,13:15-17:00; We 08:30-12:00; Th 08:45-12:30,13:15-17:00; Fr 08:45-12:30; Sa 09:00-12:00",77042,d614b050-87ff-4507-b3bc-a1145daa1b05,node/4798916927
mairie,Mairie - Boissy-le-Cutté,,Mairie de Boissy-le-Cutté,+33 1 64 57 76 76,http://www.boissy-le-cutte.fr,mairiedeboissylecutte@wanadoo.fr,21910080700011,2.28188991547,48.4692001343,2 Grande rue 91590 Boissy-le-Cutté,"Tu 14:00-17:00; We 09:00-12:00,14:00-18:00; Th-Fr 14:00-17:00; Sa 09:00-12:00",91080,9149de47-ffea-4674-b6a0-b2769110aa2f,node/3484285063
mairie,Mairie - Boissy-le-Sec,,Mairie de Boissy-le-Sec,+33 1 64 95 70 35,http://www.boissylesec.fr,mairie@boissylesec.fr,21910081500014,2.08889508247,48.4777526855,Allée Gérard-Dubrule 91870 Boissy-le-Sec,"Mo 09:00-12:00,14:00-17:00; Tu 09:00-12:00,14:00-19:00; Th-Fr 09:00-12:00,14:00-17:00",91081,29b2fc03-abbd-41f9-bfdd-bf72164e51d3,node/3499118827
mairie,Mairie - Boissy-sans-Avoir,,Mairie de Boissy-sans-Avoir,+33 1 34 86 13 05,https://boissy-sans-avoir.fr/,mairie@boissy-sans-avoir.fr,21780084600016,1.797295,48.819428,20 rue de la Mairie 78490 Boissy-sans-Avoir,Tu 10:00-12:00; Th 17:00-19:00,78084,421144b4-3ae8-4df1-b7db-a6c892fe69bd,way/400433964
mairie,Mairie - Boissy-sous-Saint-Yon,,Mairie de Boissy-sous-Saint-Yon,+33 1 64 91 92 93,https://www.boissy-ssy.fr/,mairie@boissy-ssy.fr,21910085600018,2.20920991898,48.5586013794,Place du Général-de-Gaulle 91790 Boissy-sous-Saint-Yon,"Mo 08:45-12:45,13:30-16:45; Tu 08:45-12:45,13:30-19:45; Th 08:45-12:45,13:30-19:45; Fr 08:45-12:45,13:30-16:45",91085,8cfc485b-9be4-4bb4-86ba-6e621316c6e3,way/161155949
mairie,Mairie - Boitron,,Mairie de Boitron,+33 1 64 04 93 16,,mairieboitron@wanadoo.fr,21770043400012,3.260803,48.8981553,37 route du Montcet 77750 Boitron,We 14:30-16:30,77043,cd2798d4-1c3e-4df2-aad3-302a24ee2539,node/4798916933
mairie,Mairie - Bombon,,Mairie de Bombon,+33 1 64 38 72 98,https://bombon.fr/,accueil@bombon.fr,21770044200015,2.858327,48.5726,48 rue Grande 77720 Bombon,Mo 10:30-12:00; Tu 17:00-18:30; Th-Fr 10:30-12:00,77044,940fce9d-3f0e-4830-aca9-3ba5842ebfcc,node/4798915886
mairie,Mairie - Bondoufle,,Mairie de Bondoufle,+33 1 60 86 47 27,https://www.ville-bondoufle.fr/,mairie@ville-bondoufle.fr,21910086400137,2.3814599,48.6151008,43 rue Charles-de-Gaulle 91070 Bondoufle,"Mo-We 09:00-12:00,13:30-17:30; Th 09:00-12:00,13:30-18:45; Fr 09:00-12:00; Sa 09:30-12:00",91086,1e77ff29-56c1-41c8-9f52-991ee5745275,node/3484287742
mairie,Mairie - Bondy,,Mairie de Bondy,+33 1 48 50 53 00,https://www.ville-bondy.fr/,communication@ville-bondy.fr,21930010000019,2.482633,48.9021604,Esplanade Claude-Fuzier 93143 Bondy Cedex,Mo 09:00-17:15; Tu 10:30-19:15; We-Fr 09:00-17:15,93010,eb1dff87-9ca8-4f58-96f2-823afc7de6a4,way/84177487
mairie,Mairie - Bonnelles,,Mairie de Bonnelles,+33 1 30 88 47 30,http://www.mairie-bonnelles.fr,info@mairie-bonnelles.fr,21780087900017,2.028088,48.61834,22 rue de la Libération 78830 Bonnelles,Th-Fr 16:00-18:15; Mo-Tu 16:00-18:15; Sa 09:00-11:45,78087,3821ebba-d838-43c4-8fd7-2bf2a109b587,way/404345316
mairie,Mairie - Bonneuil-en-France,,Mairie de Bonneuil-en-France,+33 1 39 86 30 40,http://www.bonneuil-en-france.fr,mairie@bonneuil-en-france.fr,21950088100012,2.43374991417,48.976600647,15 rue de Gonesse 95500 Bonneuil-en-France,"Mo-Tu 08:30-12:30,14:00-16:00; We 08:30-12:30,14:00-18:00; Fr 08:30-12:30,14:00-16:00",95088,76c2115a-4ec2-4773-94e7-ed4909e59bbb,node/10728672371
mairie,Mairie - Bonneuil-sur-Marne,,Mairie de Bonneuil-sur-Marne,+33 1 45 13 88 00,http://www.ville-bonneuil.fr,contact@bonneuil94.fr,21940011600014,2.487391,48.774381,7 rue d'Estienne-d'Orves 94380 Bonneuil-sur-Marne Cedex,"Mo 08:30-12:00,13:30-17:00; Tu 08:30-12:00,13:30-18:30; We 08:30-12:00,13:30-17:00; Th 08:30-12:30; Fr 08:30-12:00,13:30-16:30; Sa 08:30-12:00",94011,01befebc-084e-4b13-ba83-fa49ee6e8ee8,node/611874742
mairie,Mairie - Bonnières-sur-Seine,,Mairie de Bonnières-sur-Seine,+33 1 30 98 98 50,http://www.bonnieres-sur-seine.fr,accueil@bonnieres-sur-seine.com,21780089500013,1.57877004147,49.0371017456,7 rue Georges-Herrewyn 78270 Bonnières-sur-Seine,"Mo 08:30-12:00,13:00-17:00; Tu 08:30-12:00; We-Fr 08:30-12:00,13:00-17:00; Sa 09:00-12:00",78089,1540d36b-c755-4f42-8229-e706fb5b2e73,way/613854642
mairie,Mairie - Bouafle,,Mairie de Bouafle,+33 1 30 95 51 18,http://www.bouafle.fr,mairie@bouafle.fr,21780090300015,1.87896001339,49.0004005432,1 place Érambert 78410 Bouafle,"Mo-Tu 09:00-12:00; We 09:30-12:00,14:00-18:00; Fr-Sa 10:00-12:00",78090,8b8c49c9-0b02-421a-af29-3dc8f9c12bf0,way/141580694
mairie,Mairie - Bouffémont,,Mairie de Bouffémont,+33 1 39 35 43 83,https://ville-bouffemont.fr/,communication@ville-bouffemont.fr,21950091500018,2.299298,49.043034,45 rue de la République 95570 Bouffémont,"Mo 14:00-17:00; Tu-We 08:30-12:00,14:00-17:00; Th 08:30-12:00; Fr 08:30-12:00,14:00-17:00",95091,6d8f431a-6ef7-4780-99ab-267c61e18d76,node/2287682234
mairie,Mairie - Bougival,,Mairie de Bougival,+33 1 30 78 25 80,https://www.ville-bougival.fr/,accueil.mairie@ville-bougival.fr,21780092900010,2.14005994797,48.8609008789,126 rue du Maréchal-Joffre 78380 Bougival,"Mo-We 08:30-12:30,13:30-17:30; Th 13:00-20:00; Fr 08:30-12:30,13:30-17:30; Sa 09:30-12:30",78092,2fde7b8b-f320-4b4f-bb29-7903b593cea5,node/1959359057
mairie,Mairie - Bougligny,,Mairie de Bougligny,+33 1 64 28 70 56,,mairie.bougligny@wanadoo.fr,21770045900019,2.65769004822,48.1955986023,2 allée du Parc 77570 Bougligny,Mo-Tu 09:00-12:00; Th-Sa 09:00-12:00,77045,509d62ae-7fdd-4ada-9988-2ff73f903af2,node/4798915895
mairie,Mairie - Bouillante,,Mairie de Bouillante,+590 5 90 98 70 04,https://www.ville-bouillante.fr/,courrier@ville-bouillante.fr,21971106600015,-61.76882,16.132712,Hôtel de ville  Le Bourg 97125 Bouillante,"Mo-Tu 08:00-12:30,14:00-17:30; We 08:00-13:30; Th 08:00-12:30,14:00-17:30; Fr 08:00-13:30",97106,d91d16b9-4445-46f6-b286-80fabfbb4753,way/41875548
mairie,Mairie - Boulancourt,,Mairie de Boulancourt,+33 1 64 24 10 34,http://www.boulancourt77.fr,mairie-boulancourt@orange.fr,21770046700012,2.43510293961,48.258102417,Place de la Mairie 77760 Boulancourt,Tu 15:00-19:00; Th 15:00-19:30; Sa 10:00-12:00,77046,bd56c773-cfaa-4e0a-b062-132357125ae3,node/4798915885
mairie,Mairie - Bouleurs,,Mairie de Bouleurs,+33 1 64 63 84 14,https://www.bouleurs.fr/,accueil@bouleurs.fr,21770047500015,2.906263,48.88142,24 rue de l'Église 77580 Bouleurs,"Mo-Th 09:00-12:00; Fr 09:00-12:00,14:00-18:00; Sa 09:00-12:00",77047,014aa2d0-16e3-4261-93dd-68ba3e7c69f4,node/4798913772
mairie,Mairie - Boullay-les-Troux,,Mairie de Boullay-les-Troux,+33 1 60 12 12 33,http://www.boullay-les-troux.fr,mairie@boullay-les-troux.fr,21910093000011,2.048067,48.676928,2 rue du Clos-Saint-Jean 91470 Boullay-les-Troux,Mo 13:30-17:30; Tu 09:00-12:00; Th 13:30-17:30; Fr 09:00-12:00; Sa 09:00-12:00,91093,55ae8e69-77a8-4cc6-8eb8-b7446eb212af,way/363947777
mairie,Mairie - Boulogne-Billancourt,,Mairie de Boulogne-Billancourt,+33 1 55 18 53 00,https://www.boulognebillancourt.com/accueil,,21920012800011,2.240282,48.8359758,26 avenue André-Morizet 92100 Boulogne-Billancourt,"Mo-We 08:30-17:30; Th 08:30-12:00,14:00-19:15; Fr 08:30-16:30; Sa 08:30-11:45",92012,81c6e04d-b812-48af-b81e-e6d962a9836d,way/63996758
mairie,Mairie - Bouqueval,,Mairie de Bouqueval,+33 1 39 92 84 98,,mairiebouqueval@wanadoo.fr,21950094900017,2.42445993423,49.0245018005,Place Eugène-Süe 95720 Bouqueval,"Mo-Tu 09:00-12:00,14:00-17:00; We 09:00-12:00; Th 09:00-12:00,14:00-17:00; Fr 09:00-12:00",95094,52ab8a8a-a761-45f5-965e-420d9dc05964,way/326156720
mairie,Mairie - Bouray-sur-Juine,,Mairie de Bouray-sur-Juine,+33 1 69 27 44 36,http://www.bouraysurjuine.fr,accueil.mairie@bouraysurjuine.fr,21910095500018,2.29943990707,48.5209007263,18 rue de la Mairie 91850 Bouray-sur-Juine,"Mo-Tu 09:00-12:00,15:00-18:00; Th 09:00-12:00,15:00-18:00; Fr 09:00-12:00,15:00-17:00; Sa 09:00-12:00",91095,ce9d7c88-adb0-4085-9b34-da66cd8ef549,node/3484291363
mairie,Mairie - Bourdonné,,Mairie de Bourdonné,+33 1 34 87 00 16,,mairie.bourdonne@wanadoo.fr,21780096000015,1.66284000874,48.7565002441,Allée José-Maria-de-Heredia 78113 Bourdonné,Mo-Tu 10:00-12:00; Th 17:00-19:00; Sa 11:00-12:00,78096,d8827474-2743-43d6-8d0f-cc4c76732664,node/7272225381
mairie,Mairie - Bourg-la-Reine,,Mairie de Bourg-la-Reine,+33 1 79 71 40 00,http://www.bourg-la-reine.fr,mairie@bourg-la-reine.fr,21920014400018,2.31616997719,48.7790985107,6 boulevard Carnot 92340 Bourg-la-Reine,"Mo 08:30-12:00,13:30-17:30; Tu 08:30-12:00; We-Fr 08:30-12:00,13:30-17:30; Sa 09:00-12:00",92014,e30182c4-5d53-4bda-8fd7-62183b66e0ec,way/78652615
mairie,Mairie - Bourron-Marlotte,,Mairie de Bourron-Marlotte,+33 1 64 45 58 50,https://bourronmarlotte.fr/,mairie@bourronmarlotte.fr,21770048300019,2.708652,48.340792,135 rue du Général-de-Gaulle 77780 Bourron-Marlotte,"Mo-Th 09:00-12:00,14:00-17:30; Fr 09:00-12:00,14:00-17:00; Sa 09:00-12:00",77048,1daafc6f-24a0-45ec-b68c-487390f7a40f,node/4798915901
mairie,Mairie - Boussy-Saint-Antoine,,Mairie de Boussy-Saint-Antoine,+33 1 69 00 13 00,http://www.ville-boussy.fr,courrier@ville-boussy.fr,21910097100015,2.530224,48.6889478,5 place des Droits-de-l'Homme 91800 Boussy-Saint-Antoine,"Sa 08:30-12:30; Mo-Tu 08:30-12:30,14:00-17:45; We 08:30-12:30; Th-Fr 08:30-12:30,14:00-17:45",91097,7b70141e-1502-489c-87f7-2ed6f7ce99d4,way/149665640
mairie,Mairie - Boutervilliers,,Mairie de Boutervilliers,+33 1 64 95 42 09,https://mairie-boutervilliers.fr/,mairie@mairie-boutervilliers.fr,21910098900017,2.056366,48.452793,Rue de la Mairie 91150 Boutervilliers,"Mo 09:00-12:00,14:00-18:00; Tu 09:00-12:00; Th 09:00-12:00,14:00-18:00; Fr 09:00-12:00",91098,13ce7863-3a93-4152-8d4b-410d3faff534,node/3499142871
mairie,Mairie - Boutigny,,Mairie de Boutigny,+33 1 60 25 63 84,https://www.boutigny77.fr/,boutigny-77@wanadoo.fr,21770049100012,2.9286301136,48.9178009033,18 rue la Fontaine 77470 Boutigny,Mo 10:00-12:00; Tu 16:00-18:00; Th-Fr 16:00-18:00,77049,b0e52474-e354-4da1-9c99-f0298dae3f64,node/4798913795
mairie,Mairie - Boutigny-sur-Essonne,,Mairie de Boutigny-sur-Essonne,+33 1 64 57 90 10,http://www.boutignysuressonne.fr,contact@boutignysuressonne.fr,21910099700010,2.380754,48.437525,11 boulevard Maurice-Ouin 91820 Boutigny-sur-Essonne,"Mo-Tu 08:30-12:00,14:00-17:30; We 08:30-12:00; Fr 08:30-12:00,14:00-17:30; Sa 08:30-12:00; Th 08:30-12:00,16:00-19:00",91099,6cd0e172-e17c-4762-936f-1a0a0c177989,way/146230451
mairie,Mairie - Bouville,,Mairie de Bouville,+33 1 64 95 80 12,http://www.bouville-mairie.com,mairiedebouville@orange.fr,21910100300016,2.27622008324,48.4318008423,Rue de la Mairie 91880 Bouville,"Mo 09:30-12:00,16:30-18:30; Tu 09:30-12:00; Th-Fr 09:00-12:00",91100,7bfa7f14-2460-4772-8bcb-26d5f8ceedc4,node/3484318831
mairie,Mairie - Bouéni,,Mairie de Bouéni,+262 2 69 62 16 31,,contact@boueni.fr,20000874600014,45.080349,-12.910355,2 rue de la Fraternité 97620 Bouéni,"Mo-Th 07:15-12:00,13:00-16:00; Fr 07:15-11:15",97604,d2d0d944-ae70-4897-8f2a-b44fff4b61c4,way/755370480
mairie,Mairie - Bransles,,Mairie de Bransles,+33 1 64 29 54 91,,bransles.mairie@orange.fr,21770050900011,2.835019,48.152125,1 place du Général-de-Gaulle 77620 Bransles,We 10:30-12:00; Th 17:00-18:00,77050,0726c665-7fe0-4cc5-a1e0-10aba37d38b0,node/4798913788
mairie,Mairie - Bras-Panon,,Mairie de Bras-Panon,+262 2 62 51 50 50,https://www.braspanon.re,cabinet@braspanon.re,21974002400019,55.6756267,-20.9944907,89 route nationale 2 97412 Bras-Panon,Mo-Th 08:00-16:30; Fr 08:00-12:00,97402,ddb044ae-b297-41ee-a265-f1b1663f24c2,relation/2972562
mairie,Mairie - Bray-et-Lû,,Mairie de Bray-et-Lû,+33 1 34 67 72 19,https://brayetlu.fr/,accueil@mairiebrayetlu.fr,21950101200013,1.66390001774,49.138999939,Rue de l'École 95710 Bray-et-Lû,"Mo 08:30-11:30,13:30-17:00; Tu 13:30-18:00; We 08:30-11:30; Th 13:30-18:00; Fr 08:30-11:30,13:30-17:00; Sa 08:30-11:30",95101,d9f6a75c-0ac3-4b01-b2af-95deb9bc78d9,node/1564292030
mairie,Mairie - Bray-sur-Seine,,Mairie de Bray-sur-Seine,+33 1 60 67 10 11,https://www.bray-sur-seine.fr/,mairiedebraysurseine@orange.fr,21770051700014,3.239597,48.414887,Hôtel de ville de Bray-sur-Seine  1 place du Général-de-Gaulle 77480 Bray-sur-Seine,"Mo 08:30-12:00,13:30-18:30; Tu-We 08:30-12:00,13:30-16:30; Th 08:30-12:00,13:30-18:30; Fr 08:30-12:00,13:30-15:30; Sa 10:00-12:00",77051,1debd90f-6812-43ec-bf78-3195aa0ba41b,node/2736241740
mairie,Mairie - Breuil-Bois-Robert,,Mairie de Breuil-Bois-Robert,+33 1 30 42 62 35,https://www.breuil-bois-robert.fr/,mairie@breuil-bois-robert.fr,21780104200011,1.71209001541,48.9453010559,Rue de la Libération 78930 Breuil-Bois-Robert,Tu 16:30-19:00; Th 16:30-19:00; Sa 10:00-12:00,78104,be413ab8-7ac4-4fd2-9edb-f282d2ea2171,node/700914955
mairie,Mairie - Breuillet,,Mairie de Breuillet,+33 1 69 94 60 40,http://www.ville-breuillet.fr,mairie@ville-breuillet.fr,21910105200112,2.17112,48.566131,42 Grande rue 91650 Breuillet,"Mo 08:30-12:00,13:00-17:00; Tu 08:30-12:00; Sa 09:00-12:00; We-Th 08:30-12:00,13:00-17:00",91105,2c3c7f2a-24fd-4f3b-8a5b-e72db06d81fa,node/7043969162
mairie,Mairie - Breux-Jouy,,Mairie de Breux-Jouy,+33 1 64 58 41 41,http://www.breux-jouy.fr,mairie@breux-jouy.fr,21910106000016,2.155779,48.559263,1 rue du Docteur-Babin 91650 Breux-Jouy,Mo 14:30-17:30; We 09:00-12:30; Th 15:30-18:30; Fr-Sa 09:00-12:30,91106,c2c4b1ab-9744-4e44-874e-c20b49236625,node/3499148838
mairie,Mairie - Brie-Comte-Robert,,Mairie de Brie-Comte-Robert,+33 1 60 62 64 00,https://www.briecomterobert.fr/,mairie@briecomterobert.fr,21770053300011,2.611084,48.694836,2 rue de Verdun 77170 Brie-Comte-Robert,"Mo-Fr 09:00-12:30,13:30-17:30; Sa 09:00-12:00",77053,2b2cf805-dd15-4c3f-ae22-164126d32443,way/113064466
mairie,Mairie - Brignancourt,,Mairie de Brignancourt,+33 1 30 39 84 97,,brignancourt@orange.fr,21950110300010,1.94421005249,49.1376991272,16 rue de la Mairie 95640 Brignancourt,Tu 16:00-18:00; Th 16:00-18:00; Sa 10:00-12:00,95110,1f099887-d46a-4dfe-8247-241dec0c4a95,node/500854542
mairie,Mairie - Briis-sous-Forges,,Mairie de Briis-sous-Forges,+33 1 64 90 70 26,http://www.briis.fr,accueil@briis.fr,21910111000019,2.1248517,48.6245346,Place de la Libération 91640 Briis-sous-Forges,"Mo 09:00-12:00,13:30-18:00; Tu 09:00-12:00; We 09:00-12:00,13:30-18:00; Th 09:00-12:00; Fr 09:00-12:00,13:30-18:00; Sa 09:00-12:00",91111,a38074c9-31b5-4bb4-b58c-6989c8913994,way/361165464
mairie,Mairie - Brières-les-Scellés,,Mairie de Brières-les-Scellés,+33 1 64 94 11 08,http://www.mairie-brieres.com,contact.mairiebrieres@orange.fr,21910109400015,2.138502,48.4576888,Place de la Mairie 91150 Brières-les-Scellés,Tu 16:30-19:00; Fr 16:30-19:00; Sa 10:00-11:30,91109,32c53bcc-453d-47c7-9dee-926f50fbf1bc,way/83022539
mairie,Mairie - Brou-sur-Chantereine,,Mairie de Brou-sur-Chantereine,+33 1 64 26 66 66,http://www.brousurchantereine.info,mairie@brousurchantereine.fr,21770055800018,2.629519,48.882677,3 rue Lazare-Carnot 77177 Brou-sur-Chantereine,"Mo-Tu 08:30-12:00,13:30-17:30; We 08:30-12:30; Th 08:30-12:00,13:30-18:30; Fr 08:30-12:00,13:30-17:30; Sa 09:00-12:00",77055,934c7856-db77-45b3-be39-cff986bfd112,node/8228934441
mairie,Mairie - Brouy,,Mairie de Brouy,+33 1 64 99 59 73,,mairie-brouy@wanadoo.fr,21910112800011,2.278881073,48.316783905,6 rue de la Mairie 91150 Brouy,Mo 14:00-16:00; Fr 10:00-12:00,91112,7eb7fbed-a2f5-415f-8665-0a74d095dbfb,node/3510166496
mairie,Mairie - Brueil-en-Vexin,,Mairie de Brueil-en-Vexin,+33 1 34 75 37 20,https://www.brueil-en-vexin.fr/,mairie@brueil-en-vexin.fr,21780113300018,1.816391,49.030042,14 rue de l'Église 78440 Brueil-en-Vexin,Mo 08:30-12:00; Tu 14:00-18:00; Th 08:30-12:00; Fr 14:00-18:00,78113,580086b8-0ac6-4ad3-b2d5-731c2bb630d3,node/577365011
mairie,Mairie - Brunoy,,Mairie de Brunoy,+33 1 69 39 89 89,https://www.brunoy.fr/,guichetunique@mairie-brunoy.fr,21910114400018,2.5041465,48.6978398,Place de la Mairie 91805 Brunoy,"Mo 08:30-12:00,15:30-17:30; Tu 08:30-12:00,13:30-17:30; We 08:30-12:00; Th-Fr 08:30-12:00,13:30-17:30; Sa 08:30-12:00",91114,48381145-366d-483e-9cd4-7eaf1467c495,way/23598514
mairie,Mairie - Bruyères-le-Châtel,,Mairie de Bruyères-le-Châtel,+33 1 64 90 07 18,https://www.ville-bruyereslechatel.fr/,mairie@bruyereslechatel.fr,21910115100013,2.192532,48.593558,2 rue des Vignes 91680 Bruyères-le-Châtel,"Mo 10:00-13:00,14:00-17:00; Tu 14:00-17:00; We 10:00-13:00; Th 16:00-20:00; Fr 10:00-13:00,14:00-16:00",91115,d7ea2710-1f2a-4ad2-9577-a1bd273bfce0,node/3485960152
mairie,Mairie - Bruyères-sur-Oise,,Mairie de Bruyères-sur-Oise,+33 1 30 28 76 50,https://www.bruyeres-sur-oise.com/,mairie@bruyeres-sur-oise.fr,21950116000010,2.331063,49.157651,6 rue de la Mairie 95820 Bruyères-sur-Oise,"Mo-Fr 09:00-12:00,13:30-17:30",95116,27b396e0-2b6f-4a94-9d54-e4e1be7b8800,way/437311254
mairie,Mairie - Bry-sur-Marne,,Mairie de Bry-sur-Marne,+33 1 45 16 68 00,https://www.brysurmarne.fr,mairie@bry94.fr,21940015700018,2.520095,48.835433,1 Grande-Rue Charles-de-Gaulle 94360 Bry-sur-Marne,"Mo-We 08:30-12:00,13:30-17:30; Th 08:30-12:00; Fr 08:30-12:00,13:30-17:30; Sa 09:00-12:00",94015,9d0cfea8-f4c3-4a5f-b342-786e50640bcd,way/120400775
mairie,Mairie - Bréançon,,Mairie de Bréançon,+33 1 34 66 60 04,https://breancon.fr/,mairie.breancon95@orange.fr,21950102000016,2.020963,49.141988,4 rue du Moulin 95640 Bréançon,Tu 16:00-19:00; Fr 16:00-19:00,95102,c665ae08-35be-44fc-bc85-f63f84fc22df,way/401934246
mairie,Mairie - Bréau,,Mairie de Bréau,+33 1 64 38 72 39,,mairie-breau@wanadoo.fr,21770052500017,2.8776865,48.5616045,210 rue de l'École 77720 Bréau,Mo 09:00-12:00; We 09:00-12:00; Th 15:00-18:00; Sa 09:00-12:00,77052,d2ef5a67-bebc-4404-81b5-91432e22e3aa,node/9309443763
mairie,Mairie - Brétigny-sur-Orge,,Mairie de Brétigny-sur-Orge,+33 1 69 88 40 40,https://www.bretigny91.fr,prau@mairie-bretigny91.fr,21910103700014,2.305925,48.611254,44 rue de la Mairie 91220 Brétigny-sur-Orge Cedex,"Mo 08:30-12:00,13:30-17:30; Tu 13:30-17:30; We-Th 08:30-12:00,13:30-17:30; Fr 08:30-12:00,13:30-16:00; Sa 08:30-12:00",91103,0b9cb713-8963-4e10-a1e8-1fe1cf37c44a,way/143644745
mairie,Mairie - Bréval,,Mairie de Bréval,+33 1 34 97 90 90,https://www.mairie-breval.fr/,accueil@mairie-breval78.fr,21780107500011,1.533967,48.944603,3 place du Maréchal-Leclerc 78980 Bréval,Mo 08:30-12:00; Th-Fr 08:30-12:00,78107,3f810a28-bfd7-43d7-bdb7-cf828c86baf0,way/107206478
mairie,Mairie - Buc,,Mairie de Buc,+33 1 39 20 72 00,https://www.villedebuc.fr,mairie@mairie-buc.fr,21780117400012,2.12579989433,48.7742424011,3 rue des Frères-Robin 78530 Buc,"Mo 08:30-12:00,13:00-17:00; Tu 13:00-17:00; We 08:30-12:00,13:00-17:00; Th 13:30-20:00; Fr 13:00-16:30",78117,15014a6f-c392-47b4-bba5-ecd9ddd76801,way/637927969
mairie,Mairie - Buchelay,,Mairie de Buchelay,+33 1 30 98 10 78,http://www.buchelay.fr,contact@buchelay.fr,21780118200015,1.67112350464,48.9801043205,1 rue Gabriel-Péri 78200 Buchelay,"Mo-Fr 08:30-12:00,13:30-17:30",78118,65308127-eba2-4786-a744-8a5594b79343,node/1560522411
mairie,Mairie - Buhy,,Mairie de Buhy,+33 1 34 67 60 95,http://www.buhy.fr,mairie.buhy@wanadoo.fr,21950119400019,1.69258999825,49.1931991577,3 rue des Écoles 95770 Buhy,Mo 13:30-17:00; Th 17:00-19:00,95119,3e73ca85-8aed-4595-9112-e23a8af2faff,node/11198601801
mairie,Mairie - Bullion,,Mairie de Bullion,+33 1 30 41 30 20,https://www.bullion.fr/,mairie@bullion.fr,21780120800018,1.99890995026,48.6206016541,149 rue de Guette 78830 Bullion,"Mo-Tu 11:00-12:00,16:00-18:00; Th-Fr 11:00-12:00,16:00-18:00; Sa 08:30-12:00",78120,3ab88809-2f11-4c6e-8d66-f12d3efa512d,node/11044001249
mairie,Mairie - Buno-Bonnevaux,,Mairie de Buno-Bonnevaux,+33 1 64 99 48 87,https://buno-bonnevaux.fr,mairie.bunobonnevaux_91720@orange.fr,21910121900018,2.388309,48.360544,1 place Jean-Marie-Ferry 91720 Buno-Bonnevaux,We 10:00-12:00; Mo 14:00-16:00; Fr 15:00-18:00; Sa 10:00-12:00,91121,54726d99-ac0a-4f05-bda1-d966299816bd,node/3499181178
mairie,Mairie - Burcy,,Mairie de Burcy,+33 1 64 24 07 62,,burcy-mairie@orange.fr,21770056600011,2.522488,48.2382244,25 rue Grande 77760 Burcy,Fr 16:00-19:00,77056,188dbbae-5ad1-4db4-9ade-216c47171a8c,node/3878093990
mairie,Mairie - Bures-sur-Yvette,,Mairie de Bures-sur-Yvette,+33 1 69 18 24 24,http://www.bsy.fr,mairie@bsy.fr,21910122700011,2.16326999664,48.6968002319,45 rue Charles-de-Gaulle 91440 Bures-sur-Yvette,"Mo 13:30-17:30; Tu 08:30-12:30,13:30-17:30; We 08:30-12:30; Th 08:30-12:30,13:30-17:30; Fr 08:30-12:30; Sa 09:30-12:30",91122,c7ad71d0-f72d-47fb-b0e2-e5bc13343c47,way/46112886
mairie,Mairie - Bussières,,Mairie de Bussières,+33 1 60 22 50 04,https://www.bussieres77.fr/,mairie.bussieres77@wanadoo.fr,21770057400015,3.2356311,48.9224757,Rue de la Mairie 77750 Bussières,Mo-Tu 16:00-18:00; Th 17:00-18:00; Fr 16:00-17:00,77057,6de2dc02-a4ba-4bc5-92b5-cb43a86ce0b1,way/115362941
mairie,Mairie - Bussy-Saint-Georges,,Mairie de Bussy-Saint-Georges,+33 1 87 94 24 24,https://www.bussysaintgeorges.fr/,cabinet@bussy-saint-georges.fr,21770058200018,2.69791007042,48.8436012268,1 Place de la Mairie 77600 Bussy-Saint-Georges,"Mo 09:00-12:00,14:00-17:30; We-Fr 09:00-12:00,14:00-17:30; Sa 09:00-12:00",77058,75cc4bd0-7e62-4e64-b32e-3b0b50733ec5,way/113171363
mairie,Mairie - Bussy-Saint-Martin,,Mairie de Bussy-Saint-Martin,+33 1 64 66 11 20,http://www.bussy-saint-martin.com,contact@bussy-saint-martin.com,21770059000011,2.6897507,48.8500943,2 rue de la Montagne 77600 Bussy-Saint-Martin,Mo-Tu 14:00-17:00; We 08:30-12:30; Th 14:00-17:00; Fr 15:00-19:00,77059,11fd6e3d-5b3d-4d91-9ef6-f3db637cf5e9,node/4798915889
mairie,Mairie - Buthiers,,Mairie de Buthiers,+33 1 64 24 14 15,https://buthiers.fr/,mairie.buthiers@wanadoo.fr,21770060800011,2.43021011353,48.2864990234,7 rue des Roches 77760 Buthiers,Mo-Tu 14:00-17:00; Th 14:00-17:00; Fr 14:00-16:00; Sa 09:00-12:00,77060,70566176-044e-4eee-a30e-81b119509dba,node/3877912093
mairie,Mairie - Butry-sur-Oise,,Mairie de Butry-sur-Oise,+33 1 34 08 95 00,http://www.butry.fr,mairiedebutrysuroise@wanadoo.fr,21950120200010,2.195376,49.085028,Place Pierre-Blanchard 95430 Butry-sur-Oise,"We 09:00-12:00; Sa 09:00-12:00; Mo-Tu 09:00-12:00,13:30-17:30; Th-Fr 09:00-12:00,13:30-17:30",95120,b05f684e-d6d1-41ae-8125-843bc27e248d,node/588669408
mairie,Mairie - Béhoust,,Mairie de Béhoust,+33 1 34 94 67 70,http://www.behoust.fr,secretariat.behoust@orange.fr,21780053100014,1.721614,48.830494,1 place du Village 78910 Béhoust,Tu 17:30-19:00; Sa 10:00-12:00,78053,71edbb77-d7ff-42a8-bd36-c28135a28b96,way/401457648
mairie,Mairie - Béthemont-la-Forêt,,Mairie de Béthemont-la-Forêt,+33 1 34 69 27 01,https://fremecourt.fr/index.php,mairie.bethemont-laforet@wanadoo.fr,21950061800018,2.25101995468,49.0527992249,Rue de Montubois 95840 Béthemont-la-Forêt,Mo 15:30-17:30; We 09:30-12:00; Th 16:00-18:30; Sa 09:00-12:00,95061,db98821b-0546-42e0-8e5b-0ee52d2dac5a,way/696665023
mairie,Mairie - Cachan,,Mairie de Cachan,+33 1 49 69 69 69,http://www.ville-cachan.fr,,21940016500011,2.3339423,48.7946192,Square de la Libération 94230 Cachan,"Mo-We 08:15-12:00,13:30-17:15; Th 13:30-19:00; Fr 08:15-12:00,13:30-17:15; Sa 08:45-12:30",94016,8d9b66e3-aa90-4d20-b92d-6bc687efd8aa,relation/1003292
mairie,Mairie - Camopi,,Mairie de Camopi,+594 5 94 37 44 00,,,21973356500010,-52.3411,3.1655,Bourg de Camopi 97330 Camopi,Mo-Fr 07:00-12:30,97356,8a242e55-e74f-48fd-8831-5b97ed13252a,node/4048975595
mairie,Mairie - Cannes-Écluse,,Mairie de Cannes-Écluse,+33 1 60 73 57 00,http://www.cannes-ecluse.fr,mairie@cannes-ecluse.com,21770061600014,2.99059009552,48.3618011475,67 rue Désiré-Thoison 77130 Cannes-Écluse,"Mo-Fr 08:30-12:30,13:30-17:30",77061,b611a1dc-ede0-4ffb-a25b-2f8d064d7029,way/115186628
mairie,Mairie - Capesterre-Belle-Eau,,Mairie de Capesterre-Belle-Eau,+590 5 90 86 30 04,https://capesterrebelleeau.fr,,21971107400019,-61.5651974,16.0430698,Avenue Paul-Lacavé 97130 Capesterre-Belle-Eau,"Mo-Tu 07:30-12:30,14:00-17:00; We 07:30-13:00; Th 07:30-12:30,14:00-17:00; Fr 07:30-13:00",97107,e907770e-1333-40d0-bbde-b4aad025e03c,way/287147726
mairie,Mairie - Capesterre-de-Marie-Galante,,Mairie de Capesterre-de-Marie-Galante,+590 5 90 97 30 31,https://www.capesterredemariegalante.fr/,contact@capesterredemariegalante.fr,21971108200012,-61.2568777,15.9232223,Place Félix-Éboué 97140 Capesterre-de-Marie-Galante,Mo-Tu 08:00-16:00; We 07:30-13:00; Th 08:00-16:00; Fr 07:30-13:00,97108,e5e7d933-8504-4bc7-97ff-2df5abc6b293,way/125323241
mairie,Mairie - Carnetin,,Mairie de Carnetin,+33 1 64 30 24 20,https://www.carnetin.fr/fr,mairie.carnetin@wanadoo.fr,21770062400018,2.70638990402,48.8989982605,32 rue Albert-Mattar 77400 Carnetin,"Mo-Tu 13:00-16:30; We 08:30-12:00,13:00-16:30; Th-Fr 13:00-16:30",77062,8a94dbd1-d3bc-4df1-a5b3-1d6693f3f964,node/4798916931
mairie,Mairie - Carrières-sous-Poissy,,Mairie de Carrières-sous-Poissy,+33 1 39 22 36 00,http://www.carrieres-sous-poissy.fr,mairie@carrieres-sous-poissy.fr,21780123200174,2.03869199753,48.9508666992,1 place Saint-Blaise 78955 Carrières-sous-Poissy,"Mo 08:30-12:00,13:45-17:30; Tu 08:30-12:00; We 08:30-12:00,13:45-19:00; Th-Fr 08:30-12:00,13:45-17:30; Sa 08:30-12:00",78123,f27a2dca-5d66-4680-b5d1-2ea501e4b6f2,way/92118865
mairie,Mairie - Carrières-sur-Seine,,Mairie de Carrières-sur-Seine,+33 1 30 86 89 89,http://www.carrieres-sur-seine.fr,mairie@carrieres-sur-seine.fr,21780124000011,2.17596006393,48.9061012268,1 rue Victor-Hugo 78420 Carrières-sur-Seine,"Mo-Fr 08:30-12:00,13:30-17:00",78124,d380a978-e8a0-4944-8d16-5158e685699a,way/131396947
mairie,Mairie - Case-Pilote,,Mairie de Case-Pilote,+596 5 96 78 81 44,https://mairiecasepilote.fr/,contact@mairiecasepilote.fr,21972205500015,-61.1388068,14.6430374,Place Gaston-Monnerville 97222 Case-Pilote,"Mo 07:30-13:30,14:30-17:00; Tu-We 07:30-13:30; Th 07:30-13:30,14:30-17:00; Fr 07:30-13:30",97205,abe5569b-6d2d-4e0e-806c-31636812d7ff,way/177538596
mairie,Mairie - Cayenne,,Mairie de Cayenne,+594 5 94 39 70 70,https://ville-cayenne.com/,contact@ville-cayenne.fr,21973302900017,-52.335024,4.938042,1 rue de Rémire 97300 Cayenne,Mo-Fr 07:30-14:00,97302,f67f764b-2c50-4e4b-9a03-7a714e234481,way/71470728
mairie,Mairie - Cergy,,Mairie de Cergy,+33 1 34 33 44 00,https://www.cergy.fr/accueil/,contact@cergy.fr,21950127700897,2.036392,49.052156,3 place de l'Olympe-de-Gouges 95800 Cergy,"Mo-We 08:45-12:30,13:30-17:30; Th 13:30-17:30; Fr 08:45-12:30,13:30-17:30; Sa 09:00-12:30",95127,7004a2b2-d3fd-4e78-a00f-b0c80920cfd1,way/102971120
mairie,Mairie - Cernay-la-Ville,,Mairie de Cernay-la-Ville,+33 1 34 85 21 35,http://www.cernaylaville.fr,mairie.secretariat@cernaylaville.net,21780128100015,1.97161996365,48.6729011536,2 rue de l'Église 78720 Cernay-la-Ville,"Mo-Tu 09:00-12:00,17:00-18:00; We 09:00-12:00; Th 09:00-12:00,17:00-18:00; Sa 09:00-12:00",78128,1d088e28-37a9-444d-a674-5cc697803248,way/286921038
mairie,Mairie - Cerneux,,Mairie de Cerneux,+33 9 63 01 50 88,,mairie.cerneux@wanadoo.fr,21770066500011,3.344619,48.693656,1 rue de l'Église 77320 Cerneux,Tu 08:00-10:00; Fr 16:00-18:00,77066,50358eb2-cea7-44f8-a391-86253c6c9687,way/115309054
mairie,Mairie - Cerny,,Mairie de Cerny,+33 1 69 23 11 11,https://cerny.fr/fr/,mairie@cerny.fr,21910129200056,2.329444,48.476228,8 rue Degommier 91590 Cerny,"Mo-Tu 08:45-12:30,13:30-18:00; Th-Fr 08:45-12:30,13:30-18:00; Sa 09:30-12:00",91129,b4773c5c-d2b1-4ffc-b6df-7df33ae552ff,way/141007642
mairie,Mairie - Cesson,,Mairie de Cesson,+33 1 64 10 51 00,http://www.ville-cesson.fr,contact@ville-cesson.fr,21770067300106,2.60323596001,48.5626296997,8 route de Saint-Leu 77245 Cesson Cedex,"Mo-We 08:30-12:00,14:00-17:30; Th 08:30-12:00; Fr 08:30-12:00,14:00-17:30; Sa 09:30-12:00",77067,b752f1f0-c95e-45fa-8aa8-a0b8ce698781,way/113223218
mairie,Mairie - Cessoy-en-Montois,,Mairie de Cessoy-en-Montois,+33 1 60 67 44 72,https://www.cessoy.fr/,mairiecessoyenmontois@wanadoo.fr,21770068100018,3.146738,48.504629,1 place de la Mairie 77520 Cessoy-en-Montois,"Mo 14:00-17:30; Th 09:00-12:00,14:00-17:30",77068,981a4a27-d790-4290-a2df-c55b4331e588,node/4798915563
mairie,Mairie déléguée- Cezais,,,+33 2 51 00 84 95,https://rivesdufougerais.fr/,secretariat@rivesdufougerais.fr,20010257200027,-0.817513,46.590839,Cezais 34 rue du Noyer 85410 Rives-du-Fougerais,Tu 09:00-12:30; Fr 14:00-17:30,85292,e8a11988-0ae1-46b1-a66b-1cfaabbcf64f,node/10116615156
mairie,Mairie - Chailly-en-Bière,,Mairie de Chailly-en-Bière,+33 1 60 66 43 41,https://www.mairie-chailly-en-biere.fr/,mairie@chaillyenbiere.fr,21770069900010,2.6071999073,48.4659004211,2 place du Général-Leclerc 77930 Chailly-en-Bière,"Mo 08:45-12:00,14:00-16:00; Tu 08:45-12:00; We 08:45-12:00,14:00-16:00; Th 08:45-12:00; Fr 08:45-12:00,14:00-16:00; Sa 08:45-12:00",77069,22368f09-840c-43b6-bebf-1151dfc554b2,way/30836803
mairie,Mairie - Chailly-en-Brie,,Mairie de Chailly-en-Brie,+33 1 64 03 09 61,https://www.chailly-en-brie.fr,mairie@chaillyenbrie.fr,21770070700011,3.1241827,48.7894453,2 rue du Merisier 77120 Chailly-en-Brie,Mo 13:30-16:30; Tu 09:00-12:00; We 13:30-16:30; Th 09:00-12:00,77070,55888ba5-1ccf-4244-9972-6223b59e8518,node/1645490649
mairie,Mairie - Chaintreaux,,Mairie de Chaintreaux,+33 1 64 29 56 53,https://chaintreaux.fr,accueil@chaintreaux.fr,21770071500014,2.81981992722,48.1991996765,10 rue de la Mairie 77460 Chaintreaux,Mo 14:30-17:00; We 14:30-17:00; Fr 09:30-11:45,77071,9659318d-42c7-4fc4-b787-d1f75e96f224,node/4798913802
mairie,Mairie - Chalautre-la-Grande,,Mairie de Chalautre-la-Grande,+33 1 64 00 82 72,http://www.chalautre-la-grande.fr/,mairie-chalautre-la-gde@wanadoo.fr,21770072300018,3.45970988274,48.5415000916,5 rue Beauregard 77171 Chalautre-la-Grande,Mo 16:30-19:00; Th 16:30-19:00; Fr 18:30-20:00,77072,cc327ded-4aac-4b77-83c0-94c755bc6ed2,node/4798915872
mairie,Mairie - Chalautre-la-Petite,,Mairie de Chalautre-la-Petite,+33 1 64 00 18 76,https://chalautrelapetite.fr/fr,mairie@chalautrelapetite.fr,21770073100011,3.3145394,48.5291641,1 place de la Mairie 77160 Chalautre-la-Petite,Tu 16:00-18:00; Th 16:00-18:00,77073,dbbbe22f-e0d3-445c-9bd2-dc39229cd892,node/4798915897
mairie,Mairie - Chalifert,,Mairie de Chalifert,+33 1 60 43 82 38,https://www.chalifert.fr/,mairie@chalifert.fr,21770075600018,2.77397990227,48.8875007629,Rue Louis-Braille 77144 Chalifert,"Mo-Tu 08:30-12:00,14:00-17:00; We 08:30-12:00; Th-Fr 08:30-12:00,14:00-17:00; Sa 09:00-12:00",77075,943fe8c1-c28d-49f5-bf18-670391e11091,node/4798915891
mairie,Mairie - Chalmaison,,Mairie de Chalmaison,+33 1 64 01 76 07,https://www.mairie-chalmaison.fr/,contact@mairie-chalmaison.fr,21770076400012,3.2506077,48.4827573,29 rue Henri-Brugeail 77650 Chalmaison,Mo 14:00-18:00; We 14:00-18:00; Fr 14:00-17:00; Sa 09:00-12:00,77076,cf8aa04f-7640-4b76-8407-da564c9452a2,node/3974485342
mairie,Mairie - Chalo-Saint-Mars,,Mairie de Chalo-Saint-Mars,+33 1 64 95 40 45,http://www.chalosaintmars.fr,mairie@chalosaintmars.fr,21910130000016,2.0639843,48.4273885,Place du Jeu-de-Paume 91780 Chalo-Saint-Mars,"Mo 09:00-12:00; Tu 09:00-12:00,17:00-19:00; We-Sa 09:00-12:00",91130,c5b30c0b-e530-4bab-95a0-96f7a9e6e4ce,node/2354686511
mairie,Mairie - Chalou-Moulineux,,Mairie de Chalou-Moulineux,+33 1 64 95 90 30,,mairie.chalou-moulineux@wanadoo.fr,21910131800018,2.02235507965,48.3837585449,12 rue Adèle-de-Champagne 91740 Chalou-Moulineux,Mo 16:30-19:00; Th 16:30-18:30,91131,65c6b18f-7e43-4dc1-bb05-dc2d2ad982cc,node/3499182388
mairie,Mairie - Chamarande,,Mairie de Chamarande,+33 1 60 82 20 11,https://www.chamarande.fr/,mairie@chamarande.fr,21910132600011,2.21743988991,48.5135002136,2 place de la Libération 91730 Chamarande,Mo 15:00-18:00; Th 15:00-19:00; Fr 15:00-18:00; Sa 09:30-12:00,91132,6249b7ad-4b17-4164-a1b0-58a4b39100ff,way/146074067
mairie,Mairie - Chambourcy,,Mairie de Chambourcy,+33 1 39 22 31 31,http://www.chambourcy.fr,mairie@chambourcy.fr,21780133100018,2.0395834,48.9059133,Place Charles-de-Gaulle 78240 Chambourcy,"Mo 13:30-18:00; Tu-Fr 08:30-12:00,13:30-17:30; Sa 08:30-12:00",78133,6e50761d-0996-413e-ab28-794008c2b905,node/11036370375
mairie,Mairie - Chambry,,Mairie de Chambry,+33 1 64 34 04 77,https://chambry77.fr/,mairie-chambry@orange.fr,21770077200015,2.89335989952,48.9976005554,10 rue de la Ville 77910 Chambry,Mo 14:00-18:00; Tu 09:00-12:00; Th 09:00-12:00; Fr 09:00-12:00,77077,962bff19-33af-4a3c-8149-49d80a91fbcc,node/3842874864
mairie,Mairie - Chamigny,,Mairie de Chamigny,+33 1 60 22 05 46,https://www.chamigny.fr/,accueil.mairie@chamigny.fr,21770078000018,3.1507015,48.974017,33 rue Roubineau 77260 Chamigny,"Mo 08:30-12:00; Tu-Th 09:30-12:00; Fr 08:00-12:00,13:00-17:00",77078,623af552-a3bd-40ff-ad14-a621a369bdfe,node/4798916934
mairie,Mairie - Champagne-sur-Oise,,Mairie de Champagne-sur-Oise,+33 1 30 28 77 77,http://www.champagne95.fr,accueil@villedechampagne.fr,21950134300012,2.23104000092,49.1339988708,8 bis place du Général-de-Gaulle 95660 Champagne-sur-Oise,"Mo-Th 08:30-12:00,13:30-17:30; Fr 08:30-12:00,13:30-16:30; Sa 08:30-12:00",95134,78b49139-3bae-4d99-85f6-a5671e731242,node/2244841632
mairie,Mairie - Champagne-sur-Seine,,Mairie de Champagne-sur-Seine,+33 1 60 39 51 20,https://www.champagne-sur-seine.fr,cabinet@champagne-sur-seine.fr,21770079800010,2.80452990532,48.3949012756,149 rue Grande 77430 Champagne-sur-Seine,"Mo-Th 09:00-12:00,14:00-17:30; Fr 09:00-12:00,14:00-16:45; Sa 09:00-12:00",77079,9bb7863a-6e3a-4220-adf9-818d936f754c,way/115198773
mairie,Mairie - Champcenest,,Mairie de Champcenest,+33 9 86 76 00 56,https://www.mairie-champcenest.com/,champcenest.mairie@gmail.com,21770080600011,3.282952,48.669498,8 avenue des Peupliers 77560 Champcenest,Mo 16:00-18:30; We 16:00-19:00,77080,5e208bdc-19a0-4cb6-863a-7b6af20ede55,node/4798915868
mairie,Mairie - Champcueil,,Mairie de Champcueil,+33 1 64 99 72 75,http://www.champcueil.fr,mairie@champcueil.fr,21910135900012,2.44490003586,48.5147018433,4 rue Royale 91750 Champcueil,"Mo-Fr 08:30-12:00,15:00-17:00",91135,ed80f238-468d-4f99-9ed3-1ec2fcea347f,way/153036253
mairie,Mairie - Champdeuil,,Mairie de Champdeuil,+33 1 64 38 87 63,http://www.champdeuil.fr,commune.de.champdeuil@wanadoo.fr,21770081400015,2.731561,48.620691,43 rue Grande 77390 Champdeuil,"Mo 09:00-12:00,14:00-16:30; Tu 09:00-12:00,15:00-18:30; We 09:00-12:00; Th 09:00-12:00,14:00-16:30; Fr 09:00-12:00",77081,cd77ba75-6d5d-47a4-9e6e-4e41fb539aa8,way/113305753
mairie,Mairie - Champeaux,,Mairie de Champeaux,+33 1 60 66 91 88,https://champeaux-77.fr,j.secretariat@champeaux77.fr,21770082200018,2.806179,48.583619,5 place du Cloître 77720 Champeaux,"Mo 13:00-17:30; Tu 08:00-12:00,13:00-17:30; Th 13:00-17:30; Fr 08:00-12:00,13:00-17:30; Sa 08:30-12:00",77082,f8878d98-037a-4eea-88a3-8d3688dce537,way/176175881
mairie,Mairie - Champigny-sur-Marne,,Mairie de Champigny-sur-Marne,+33 1 45 16 40 00,https://www.champignysurmarne.fr/,,21940017300015,2.510912,48.813453,14 rue Louis-Talamoni 94500 Champigny-sur-Marne,"Mo-Th 08:30-12:00,13:30-18:00; Fr 08:30-12:00,13:30-17:00; Sa 08:30-12:00",94017,2dc9de25-6aa9-4896-b503-0e3d19817390,node/2702498234
mairie,Mairie - Champlan,,Mairie de Champlan,+33 1 69 74 86 60,https://www.ville-champlan.fr/,contact-mairie@ville-champlan.fr,21910136700015,7.357743,48.079769,Place de la Mairie 91160 Champlan,"Mo 09:00-12:00,13:30-17:30; Tu 13:30-17:30; We 09:00-12:00; Th 13:30-17:30; Fr 09:00-12:00,13:30-17:30",91136,26297100-f57b-4a98-b893-a4d9b18d1d2b,way/146303014
mairie,Mairie - Champmotteux,,Mairie de Champmotteux,+33 1 64 99 59 28,http://www.champmotteux.fr,mairie.champmotteux@wanadoo.fr,21910137500018,2.31983995438,48.3432006836,6 rue Michel-de-l'Hospital 91150 Champmotteux,Tu-Th 10:00-12:00; Sa 10:00-12:00,91137,3ef23fe4-4690-4dcb-84c1-6f8e25ef1da8,way/345898254
mairie,Mairie - Champs-sur-Marne,,Mairie de Champs-sur-Marne,+33 1 64 73 48 48,https://www.ville-champssurmarne.fr/,courrier@ville-champssurmarne.fr,21770083000011,2.6023828,48.8531557,Mail Jean-Ferrat 77420 Champs-sur-Marne,"Mo-Fr 08:30-12:00,13:30-17:45; Sa 09:00-12:00",77083,41dd51b7-43d5-45c3-a2f7-392b7b50f4cb,relation/2673069
mairie,Mairie - Changis-sur-Marne,,Mairie de Changis-sur-Marne,+33 1 64 35 90 74,http://www.changis-sur-marne.fr,mairie@changis-sur-marne.fr,21770084800013,3.01478004456,48.9570007324,Place du Docteur-Cruchaudeau 77660 Changis-sur-Marne,Mo 14:00-18:30; We 09:00-12:00; Th 14:00-18:30; Sa 09:00-12:00,77084,c7addd83-39b8-4e85-92c3-6a46c2b97397,node/4077694640
mairie,Mairie - Chanteloup-en-Brie,,Mairie de Chanteloup-en-Brie,+33 1 64 12 74 50,http://www.mairie-chanteloup-en-brie.fr,accueil@chanteloupenbrie.fr,21770085500018,2.739285,48.85647,1 route du Moulin Boursier 77600 Chanteloup-en-Brie,"Tu 09:00-12:00,14:00-18:30; We 09:00-12:00,14:00-17:15; Th 09:00-12:00; Fr 09:00-12:00,14:00-17:15; Sa 09:00-12:15",77085,d05253ea-40b0-49c3-aa60-375fd269c3ef,way/115371880
mairie,Mairie - Chanteloup-les-Vignes,,Mairie de Chanteloup-les-Vignes,+33 1 34 01 10 50,http://www.chanteloup-les-vignes.fr,mairie@chanteloup-les-vignes.fr,21780138000015,2.0304752,48.9789078,37 rue du Général-Leclerc 78570 Chanteloup-les-Vignes,"Mo-Fr 09:00-12:00,13:30-18:00; Sa 09:00-12:00",78138,6b11706c-54b7-4519-925b-4bb6403d6380,way/224423684
mairie,Mairie - Chapet,,Mairie de Chapet,+33 1 34 74 51 15,http://www.chapet.com,mairie@chapet.com,21780140600018,1.9343999,48.9658012,Place de la Mairie 78130 Chapet,"Tu 09:00-12:00; We 09:00-12:00,13:30-17:00; Fr 09:00-12:00; Sa 09:00-11:30",78140,491f61ee-5180-477b-b86d-f7656a8b22b9,node/509263858
mairie,Mairie - Charenton-le-Pont,,Mairie de Charenton-le-Pont,+33 1 46 76 46 76,http://www.charentonlepont.fr,communication@charenton.fr,21940018100018,2.415819,48.819599,48 rue de Paris 94220 Charenton-le-Pont,Mo-Fr 08:30-17:15,94018,bf44ec72-48c5-4cd5-8d8a-2ebc7d56e6a2,way/149276228
mairie,Mairie - Charmentray,,Mairie de Charmentray,+33 1 60 01 90 06,https://www.charmentray.fr,mairie.charmentray@orange.fr,21770094700013,2.776833,48.945956,39 rue des Deux-Jumeaux 77410 Charmentray,Tu 13:45-18:00; Th 13:00-15:30,77094,bee39188-534f-4099-8351-c0ce9a3ec422,node/3351967873
mairie,Mairie - Charmont,,Mairie de Charmont,+33 1 61 02 09 51,,mairie.charmont@wanadoo.fr,21950141800012,1.790654,49.137252,4 Grande rue 95420 Charmont,Tu 09:00-12:00; Fr 14:00-17:00,95141,98cea978-2e2f-49f7-b21f-41c924315893,node/8168518464
mairie,Mairie - Charny,,Mairie de Charny,+33 1 60 01 91 08,http://www.charny77.fr,mairie.charny77@wanadoo.fr,21770095400019,2.76107001305,48.9710006714,1 rue de l'Église 77410 Charny,"Mo 13:30-19:00; Tu 08:30-12:00,13:30-18:00; We 08:30-12:00; Th 08:30-12:00,13:30-19:00; Fr 08:30-12:00,13:30-18:00",77095,90738439-6644-4317-b76f-76663fe3f223,node/3351968053
mairie,Mairie - Chars,,Mairie de Chars,+33 1 30 39 72 36,http://www.mairiechars95.fr,administration@mairie-chars.fr,21950142600015,1.93335998058,49.1608009338,2 rue de Gisors 95750 Chars,"Mo-We 09:00-12:00,13:30-17:00; Th 09:00-12:00; Fr 09:00-12:00,13:30-17:00; Sa 09:00-12:00",95142,0d95b18a-5c0c-4ca8-97e7-fe608d890dc3,node/500854535
mairie,Mairie - Chartrettes,,Mairie de Chartrettes,+33 1 60 69 65 01,http://www.mairie-chartrettes.fr,mairie@mairie-chartrettes.fr,21770096200012,2.69564008713,48.492099762,37 ter rue Georges-Clemenceau 77590 Chartrettes,"Mo 09:00-12:00,14:00-17:30; Tu-We 09:00-12:00; Th 09:00-12:00,14:00-17:30; Fr 09:00-12:00; Sa 09:15-12:00",77096,7c0a2430-a60a-4d10-882c-d6853d77ffc5,node/2362233346
mairie,Mairie - Chartronges,,Mairie de Chartronges,+33 1 64 04 04 29,,mairie.chartronges@orange.fr,21770097000015,3.2180232,48.758751,34 Grande rue 77320 Chartronges,Mo 08:30-12:30; Th 13:30-17:00; Fr 08:30-12:00,77097,86da5e0c-52df-4822-8e67-3ec01258c5fb,node/4798913791
mairie,Mairie - Chatignonville,,Mairie de Chatignonville,+33 1 64 95 51 80,,mairiechatignonville@orange.fr,21910145800012,1.930582,48.469075,"8, Grande rue 91410 Chatignonville",,91145,30aa23d6-7f6f-4d3b-bbaa-76ea7a57272d,node/3499188917
mairie,Mairie - Chatou,,Mairie de Chatou,+33 1 34 80 46 00,https://www.chatou.fr/,mairie@mairie-chatou.fr,21780146300019,2.15763998032,48.8899993896,Hôtel de Ville  11 place du Général-de-Gaulle 78401 Chatou Cedex,"Mo-Fr 08:00-12:00,14:00-17:30; Sa 08:15-11:45",78146,bd690a8a-350f-4107-936f-20166aa9314a,way/49158537
mairie,Mairie - Chauconin-Neufmontiers,,Mairie de Chauconin-Neufmontiers,+33 1 64 33 11 18,http://www.chauconin-neufmontiers.fr,chauconin-neufmontiers@wanadoo.fr,21770335400019,2.838348,48.973592,Rue Pierre Charton 77124 Chauconin-Neufmontiers,"Mo 09:00-12:00,15:00-18:00; Tu 15:00-19:00; We 09:00-12:00; Th 15:00-18:00; Fr 09:00-12:00,15:00-18:00; Sa 09:00-12:00",77335,338228d2-dc11-462c-88ff-4359682c6d36,way/116129531
mairie,Mairie - Chauffour-lès-Étréchy,,Mairie de Chauffour-lès-Étréchy,+33 1 60 80 26 26,https://www.chauffour-les-etrechy.fr,mairiechauffour@orange.fr,21910148200012,2.168646,48.503897,23 Grande rue 91580 Chauffour-lès-Étréchy,Th 18:00-19:00; Tu 09:00-12:30,91148,e24f4410-8bfd-469a-a4da-fe252afa6eff,node/3499191774
mairie,Mairie - Chauffry,,Mairie de Chauffry,+33 1 64 20 42 31,http://www.chauffry.fr,mairie-chauffry@wanadoo.fr,21770106900015,3.18268990517,48.8149986267,45 rue de la Mairie 77169 Chauffry,"Mo 09:00-12:00; Tu 09:00-12:00,14:00-18:00; Th-Fr 09:00-12:00",77106,86a7caff-e73b-431a-8e27-bbb4a836cdd6,way/115149865
mairie,Mairie - Chaufour-lès-Bonnières,,Mairie de Chaufour-lès-Bonnières,+33 1 34 76 11 70,http://www.chaufourlesbonnieres.fr,mairie@chaufourlesbonnieres.fr,21780147100012,1.483446,49.015668,13 rue de la Mairie 78270 Chaufour-lès-Bonnières,Tu 17:30-19:00; Fr 17:30-19:00,78147,3504a2f0-a64e-4a87-a8e4-e0c11a339d3d,node/1219372183
mairie,Mairie - Chaumes-en-Brie,,Mairie de Chaumes-en-Brie,+33 1 64 25 00 00,https://www.chaumesenbrie.fr/,mairie@chaumes-en-brie.fr,21770107700018,2.841244,48.666072,Place Foch 77390 Chaumes-en-Brie,"Mo-Tu 09:00-12:00,14:00-17:00; We 09:00-12:00; Th 14:00-17:00; Fr 09:00-12:00,14:00-17:00; Sa 09:00-12:00",77107,13fbe043-734e-4430-8ddc-dbae62d284a0,node/980768724
mairie,Mairie - Chaumontel,,Mairie de Chaumontel,+33 1 34 71 03 96,https://ville-chaumontel.fr/,mairie@ville-chaumontel.fr,21950149100019,2.431666,49.122753,20 rue André-Vassord 95270 Chaumontel,"Mo 08:30-12:00,13:30-18:00; Tu 13:30-18:00; We-Th 08:30-12:00; Fr 08:30-12:30,13:30-18:00; Sa 08:30-12:00",95149,917e8480-04ff-4ccf-904c-b133713b1e24,way/147484430
mairie,Mairie - Chaussy,,Mairie de Chaussy,+33 1 34 67 70 11,http://www.chaussy95.fr,mairie.chaussy@wanadoo.fr,21950150900018,1.69380998611,49.1213989258,Place Charles-de-Gaulle 95710 Chaussy,Tu 09:00-12:00; We 17:00-19:00; Th 13:30-16:30; Sa 09:00-11:00,95150,1120e367-9512-41b2-9823-ea4b1bae478d,way/433221974
mairie,Mairie - Chauvry,,Mairie de Chauvry,+33 1 34 69 26 09,https://chauvry.fr,mairie.de.chauvry@orange.fr,21950151700011,2.266477,49.05447,Grande rue 95560 Chauvry,Mo-Tu 16:30-18:00; Th 16:30-18:00; Fr 16:30-18:30,95151,925fe371-90ec-454d-9edd-df4435e13b86,way/437163837
mairie,Mairie - Chavenay,,Mairie de Chavenay,+33 1 30 54 31 70,http://www.chavenay.fr,mairie@chavenay.fr,21780152100014,1.98676002026,48.8532981873,Place de l'Église 78450 Chavenay,Mo-Tu 14:00-17:30; We 08:30-12:00; Th-Fr 14:00-17:30,78152,a49939aa-bb42-4de2-a0c4-8d10af90392b,way/63466362
mairie,Mairie - Chaville,,Mairie de Chaville,+33 1 41 15 40 00,https://www.ville-chaville.fr/accueil-3.html,mairie@ville-chaville.fr,21920022700011,2.188706,48.809451,1456 avenue Roger-Salengro 92370 Chaville,"Sa 09:00-12:00; Mo 08:30-12:30,13:30-17:30; Tu 13:30-17:30; We-Th 08:30-12:30,13:30-17:30; Fr 08:30-12:30,13:30-16:30",92022,355f3722-bf6b-4fce-8c06-bb3d108e6d00,way/132162478
mairie,Mairie - Chelles,,Mairie de Chelles,+33 1 64 72 84 84,https://www.chelles.fr/,maire@chelles.fr,21770108500011,1.8963993,49.0866787,Parc du Souvenir-Émile-Fouchard 77500 Chelles,"Mo-We 09:00-12:30,14:00-17:30; Th 12:00-17:30; Fr 09:00-12:30,14:00-17:30; Sa 09:00-12:30",77108,aa283e8f-ae35-4729-a92e-877a8ab1621f,way/111038720
mairie,Mairie - Chennevières-lès-Louvres,,Mairie de Chennevières-lès-Louvres,+33 1 34 68 14 30,,mairie@chennevieresleslouvres.fr,21950154100011,2.551199,49.044919,5 place de l'Église 95380 Chennevières-lès-Louvres,,95154,2a92e121-1ac0-42bb-b43a-9fdac84287f1,node/11042465952
mairie,Mairie - Chennevières-sur-Marne,,Mairie de Chennevières-sur-Marne,+33 1 45 94 74 74,https://www.chennevieres.com/,,21940019900184,2.532398,48.796282,14 avenue du Maréchal-Leclerc 94430 Chennevières-sur-Marne,"Mo-Fr 09:00-12:00,14:00-17:00; Sa 09:00-12:00",94019,bf3ff90c-550e-4d99-a8af-81ef81e3b424,way/109256694
mairie,Mairie - Chenoise-Cucharmoy,,Mairie de Chenoise-Cucharmoy,+33 1 64 00 91 18,http://www.chenoise-cucharmoy.fr/,accueil@chenoise-cucharmoy.fr,20008403600041,3.195381,48.616363,Chenoise  1 ruelle Saint-Loup 77160 Chenoise-Cucharmoy,"Mo-Tu 08:30-12:00,13:30-17:00; We 08:30-12:00; Th-Fr 08:30-12:00,13:30-17:00; Sa 09:30-11:30",77109,5de54c6b-def3-4b27-912d-a8cf74e0885a ,way/161044237
mairie,Mairie déléguée - Cucharmoy,,Mairie déléguée de Cucharmoy,+33 1 60 58 75 93,http://www.chenoise-cucharmoy.fr,mairie.cucharmoy@wanadoo.fr,20008403600041,3.19039,48.61097,Cucharmoy Place de l'Église Foyer rural 77160 Chenoise-Cucharmoy,Tu 08:30-12:00; Fr 08:30-12:00,77109,fab144cc-9570-4bcd-ab19-32d996daaba3,node/4798915881
mairie,Mairie - Chenou,,Mairie de Chenou,+33 1 64 29 33 12,,mairie.chenou@laposte.net,21770110100016,2.7057800293,48.2036018372,6 rue de la Mairie 77570 Chenou,Tu 16:30-19:00; Fr 16:30-19:00; Sa 09:30-11:30,77110,207c73b7-b5d6-4c2f-91a7-06548ea00804,node/4798915873
mairie,Mairie - Cheptainville,,Mairie de Cheptainville,+33 1 69 14 82 12,http://www.cheptainville.fr,accueil@cheptainville.fr,21910156500014,2.26628994942,48.5541992188,5 rue du Ponceau 91630 Cheptainville,,91156,ca8b6b48-23a1-406b-9063-9217ef90ce2c,way/107365740
mairie,Mairie - Val-de-Cognac,,Mairie de Val-de-Cognac,+33 5 45 83 25 69,https://www.val-de-cognac.com/,mairie@valdecognac.fr,20010222600012,-0.316870003939,45.6949005127,Cherves-Richemont 2 place du Champ-de-Foire 16370 Val-de-Cognac,"Mo 09:00-12:30,13:30-18:00; We 09:00-12:30,13:30-17:00; Th 09:00-12:30; Fr 09:00-12:30,13:30-17:00",16097,5e8502cb-b69c-418f-b4a3-22816d5b1497 ,way/47289619
mairie,Mairie - Chessy,,Mairie de Chessy,+33 1 60 43 80 21,https://www.chessy77.fr,contact.mairie@chessy77.fr,21770111900018,2.81048202515,48.8962364197,32 rue Charles-de-Gaulle 77700 Chessy,"Mo 14:30-17:30; Tu-Fr 09:00-11:45,14:30-17:30; Sa 09:00-12:00",77111,3eb2cdd2-35a5-45f4-b2b8-9067eb7f37f7,node/4798915853
mairie,Mairie - Chevannes,,Mairie de Chevannes,+33 1 64 99 70 04,,mairie.de.chevannes@gmail.com,21910159900062,2.4444102,48.5343939,2 rue du Parc 91750 Chevannes,"Mo-Th 10:00-12:00,15:00-18:00; Fr 10:00-13:00; Sa 10:00-12:00",91159,8e4fe185-38f3-425d-8aa2-e34169874d3a,node/9309413563
mairie,Mairie - Chevilly-Larue,,Mairie de Chevilly-Larue,+33 1 45 60 18 00,https://www.ville-chevilly-larue.fr/,,21940021500014,2.347826,48.771429,88 avenue du Général-de-Gaulle 94669 Chevilly-Larue Cedex,"Mo 08:45-12:00,13:30-17:30; Tu 13:30-18:30; We-Th 08:45-12:00,13:30-17:30; Fr 08:45-12:00,13:30-17:00; Sa 08:45-12:00",94021,1e673c75-155c-4085-a4d6-682378638a7d,way/155546358
mairie,Mairie - Chevrainvilliers,,Mairie de Chevrainvilliers,+33 1 64 28 71 15,https://www.chevrainvilliers.fr,mairie.chevrainvilliers@orange.fr,21770112700011,2.6152639389,48.2447242737,10 rue du Gâtinais 77760 Chevrainvilliers,Mo 14:00-17:00; Tu 10:00-12:00; Th 15:00-17:00; Fr 10:00-12:00; Sa 09:00-11:00,77112,914532f2-7e95-4cb2-86af-d5c71e75f362,node/4798915860
mairie,Mairie - Chevreuse,,Mairie de Chevreuse,+33 1 30 52 15 30,http://www.chevreuse.fr,mairie@chevreuse.fr,21780160400018,2.04450011253,48.7075004578,5 rue de la Division-Leclerc 78460 Chevreuse,"Mo 08:30-12:00; Tu 08:30-12:00,13:30-18:00; We 08:30-12:00; Th 08:30-12:00,13:30-18:00; Fr 08:30-12:00,13:30-17:00; Sa 09:00-12:00",78160,d1804ec2-17e8-4cb4-89c1-a892056f621a,way/405387271
mairie,Mairie - Chevru,,Mairie de Chevru,+33 1 64 04 60 91,https://www.chevru.fr/,mairiedechevru@laposte.net,21770113500014,3.19333004951,48.7355995178,14 rue Médéric-Charot 77320 Chevru,Mo-Tu 08:30-11:30; Th-Sa 08:30-11:30,77113,66ae3f1d-1b00-4c2f-8deb-c365b0819cf9,node/1636457731
mairie,Mairie - Chevry-Cossigny,,Mairie de Chevry-Cossigny,+33 1 64 05 20 22,,mairie@chevry-cossigny.fr,21770114300018,2.6569,48.72455,20 rue Charles-Pathé 77173 Chevry-Cossigny,"Mo 09:00-12:00,14:00-17:30; Tu 09:00-12:00; We-Fr 09:00-12:00,14:00-17:30; Sa 09:00-12:00",77114,7e6358a1-0139-45bc-964d-166f863bce36,way/97561399
mairie,Mairie - Chevry-en-Sereine,,Mairie de Chevry-en-Sereine,+33 1 64 31 50 12,http://www.chevryensereine.fr,chevry.en.sereine@wanadoo.fr,21770115000013,2.94405007362,48.2624015808,3 rue de la Croix-Saint-Marc 77710 Chevry-en-Sereine,Mo 14:00-16:30; We 09:00-12:00; Fr 14:00-16:30,77115,2b445ea8-dff4-4e5e-b642-26b3869e2a09,way/278566942
mairie,Mairie - Chiconi,,Mairie de Chiconi,+262 2 69 62 16 90,http://www.villedechiconi.fr,mairie@villedechiconi.fr,20000875300010,45.114157,-12.833038,4 rue de l'Hôtel de ville 97670 Chiconi,"Mo-Th 07:00-12:00,13:30-16:15; Fr 07:00-11:00",97605,79ead539-37f2-48a1-88b3-ea81787b99fb,node/4737488821
mairie,Mairie - Chilly-Mazarin,,Mairie de Chilly-Mazarin,+33 1 69 10 37 00,https://www.ville-chilly-mazarin.fr/,contact@ville-chilly-mazarin.fr,21910161500017,2.320706,48.702906,Cité administrative  31 avenue Pierre-Brossolette 91380 Chilly-Mazarin,,91161,e666a473-67da-4889-b9c6-6dbf212cb5ea,way/161214689
mairie,Mairie - Chirongui,,Mairie de Chirongui,+262 2 69 62 18 03,,secretariat@chirongui.yt,20000877900015,45.1463158,-12.9374413,11 rue de l’Hôtel-de-ville 97620 Chirongui,Mo-Th 07:15-16:20; Fr 07:00-11:00,97606,801d46a0-8383-451a-8994-0e1b5e5842d0,node/4382643974
mairie,Mairie - Choisel,,Mairie de Choisel,+33 1 30 52 42 15,http://www.choisel.fr,mairie.choisel@wanadoo.fr,21780162000014,2.017795,48.6866729,1 route de la Grange-aux-Moines 78460 Choisel,Mo-Tu 14:00-19:00; We 14:00-17:00; Th-Fr 14:00-19:00,78162,d75be620-16e0-4ca6-9f75-7a5b9494c84e,way/399123667
mairie,Mairie - Choisy-en-Brie,,Mairie de Choisy-en-Brie,+33 1 64 75 81 90,http://www.choisy-en-brie.fr,contact@choisy-en-brie.fr,21770116800015,3.22702002525,48.7594985962,5 route de la Ferté-Gaucher 77320 Choisy-en-Brie,Tu-Sa 09:00-12:00,77116,b99c71ea-75cc-41f2-93b2-14113f91d217,node/4798915606
mairie,Mairie - Choisy-le-Roi,,Mairie de Choisy-le-Roi,+33 1 48 92 44 44,https://www.choisyleroi.fr/,courrier@choisyleroi.fr,21940022300018,2.409256,48.763341,Place Gabriel-Péri 94600 Choisy-le-Roi,"Mo-Th 08:30-11:45,13:30-17:30; Fr 08:30-11:45; Sa 09:00-11:45",94022,a7cb763f-e6a9-4ddd-9f5a-2809b282e2e0,way/66132737
mairie,Mairie - Château-Landon,,Mairie de Château-Landon,+33 1 60 55 50 20,http://chateau-landon.com,mairie@chateau-landon.com,21770099600010,2.7044411,48.1499482,2 place de l'Hôtel-de-Ville 77570 Château-Landon,"Mo-Th 08:30-12:30,13:30-17:00; Fr 08:30-12:30,13:30-15:30; Sa 10:00-12:00",77099,830ac83e-5a0d-4ec0-a7c9-fe80f9124c2e,node/423989967
mairie,Mairie - Châteaubleau,,Mairie de Châteaubleau,+33 1 64 01 69 45,,mairie.chateaubleau@wanadoo.fr,21770098800017,3.10976004601,48.5882987976,1 rue de l'Église 77370 Châteaubleau,Mo 15:00-18:30; Th 15:00-18:30,77098,3497246a-14ee-4b0f-8e31-e05f81ec4cfa,way/148529985
mairie,Mairie - Châteaufort,,Mairie de Châteaufort,+33 1 39 56 76 76,https://www.mairie-chateaufort78.fr/accueil.php,accueil@mairie-chateaufort78.fr,21780143000018,2.092082,48.73716,19 place Saint-Christophe 78117 Châteaufort,"Mo 10:00-12:00,14:00-17:00; Tu 10:00-12:00,14:00-19:00; We 10:00-12:00,14:00-17:00; Th 10:00-12:00; Fr 10:00-12:00,14:00-17:00; Sa 10:00-12:00",78143,80b3dde3-01fe-4d93-8701-3629d0e1d412,node/2172231532
mairie,Mairie - Châtenay-Malabry,,Mairie de Châtenay-Malabry,+33 1 46 83 46 83,https://www.chatenay-malabry.fr/,infos@chatenay-malabry.fr,21920019300015,2.277524,48.767156,26 rue du Docteur-le-Savoureux 92290 Châtenay-Malabry,"Mo-Fr 08:30-12:30,13:30-17:30; Sa 09:00-12:00",92019,2bcdbdb0-2fe9-40b4-9548-ef76edd5d614,way/89671972
mairie,Mairie - Châtenay-en-France,,Mairie de Châtenay-en-France,+33 1 34 71 19 93,,,21950144200012,2.45743989944,49.0666999817,10 rue de l'Église 95190 Châtenay-en-France,,95144,6258bc66-5d01-449b-b13f-1409f29e647e,node/11042437578
mairie,Mairie - Châtenay-sur-Seine,,Mairie de Châtenay-sur-Seine,+33 1 64 31 30 21,,mairie@chatenaysurseine.fr,21770101000019,3.096509,48.418895,Place de la Mairie 77126 Châtenay-sur-Seine,"Mo-Tu 08:00-12:00,13:30-17:00; Th-Fr 08:00-12:00,13:30-17:00; Sa 10:00-12:00",77101,2a551eeb-cd55-4d98-a7ec-787e51a8b6f7,node/4798915880
mairie,Mairie - Châtenoy,,Mairie de Châtenoy,+33 1 64 28 74 87,http://www.chatenoy.fr,mairiedechatenoy77@orange.fr,21770102800011,2.62854003906,48.2336997986,Place de la Mairie 77167 Châtenoy,We 14:30-18:30,77102,aff25e0d-d0cb-4e3d-a32a-d48e52dbad03,way/349231975
mairie,Mairie - Châtillon,,Mairie de Châtillon,+33 1 42 31 81 81,https://ville-chatillon.fr,etat-civil@chatillon92.fr,21920020100016,2.289605,48.800065,1 place de la Libération 92320 Châtillon,"Mo-We 08:30-12:15,13:30-18:00; Th 13:30-19:00; Fr 08:30-12:15,13:30-18:00; Sa 08:30-13:30",92020,74daed04-861c-422c-b9a0-ec6da2a500b5,way/87394669
mairie,Mairie - Châtillon-la-Borde,,Mairie de Châtillon-la-Borde,+33 1 60 69 49 78,,chatillon.la.borde@wanadoo.fr,21770103600014,2.83496999741,48.529800415,14 Grande Rue 77820 Châtillon-la-Borde,"Mo-Tu 09:00-12:00,14:00-17:30; Th-Fr 09:00-12:00,14:00-17:30",77103,14a2c745-094c-466b-92b4-1316a49688d2,node/4798913797
mairie,Mairie - Châtres,,Mairie de Châtres,+33 1 64 42 59 30,http://www.mairiedechatres.com,mairie.chatres@wanadoo.fr,21770104400018,2.8083999157,48.7114982605,Rue de la Mairie 77610 Châtres,Tu 16:30-18:00; We 09:00-12:00; Th 16:30-18:00; Fr 16:30-18:00; Sa 09:00-12:00,77104,05869a8b-d18f-4465-bf62-00b7da5c756a,way/148531556
mairie,Mairie - Chérence,,Mairie de Chérence,+33 1 34 78 15 08,,mairie.cherence@wanadoo.fr,21950157400012,1.677241,49.08774,8 rue de l'Église 95510 Chérence,,95157,c50862e1-95fb-4cd3-871a-2bcbddaefe58,way/401935598
mairie,Mairie - Cilaos,,Mairie de Cilaos,+262 2 62 31 89 89,https://ville-cilaos.fr/,cabinet.maire.cilaos@ville-cilaos.fr,21974024800014,55.463134,-21.136617,66 rue du Père-Boiteau 97413 Cilaos,"Mo-Th 08:00-12:00,12:45-16:30; Fr 08:00-12:00",97424,6b917eed-351b-4dba-9317-fc69de0cfe54,node/1928575754
mairie,Mairie - Citry,,Mairie de Citry,+33 1 60 23 60 27,https://www.citry.fr,mairie.citry@orange.fr,21770117600018,3.23839211464,48.9686737061,Place Gaston-de-Renty 77730 Citry,Mo-Tu 14:00-17:30; Th 14:00-17:30; Fr 14:00-16:30; Sa 09:00-12:00,77117,209de1c6-b68e-4145-b9ab-d6cf16e67b13,node/4798913789
mairie,Mairie - Civry-la-Forêt,,Mairie de Civry-la-Forêt,+33 1 34 87 71 27,,mairie.civrylaforet@gmail.com,21780163800016,1.615347,48.86691,564 Grande rue 78910 Civry-la-Forêt,Tu 10:00-12:00; Fr 18:00-20:00,78163,fea18190-a279-413c-8cab-7d95d44f964e,node/912616934
mairie,Mairie - Clairefontaine-en-Yvelines,,Mairie de Clairefontaine-en-Yvelines,+33 1 34 84 50 68,http://www.clairefontaine-en-yvelines.fr,mairie@clairefontaine-yvelines.fr,21780164600019,1.909681,48.6124362,1 place de la Mairie 78120 Clairefontaine-en-Yvelines,Mo-Tu 09:00-12:00; Th-Fr 09:00-12:00; Sa 10:00-12:00,78164,a292c784-f9db-4c0a-86bf-21b9e20c9ed7,way/110090394
mairie,Mairie - Clamart,,Mairie de Clamart,+33 1 46 62 35 35,https://www.clamart.fr/fr,mairie@clamart.fr,21920023500014,2.263582,48.800292,Hôtel de Ville  Place Maurice-Gunsbourg 92140 Clamart,"Mo 08:30-12:30,13:30-18:00; Tu 13:30-18:00; We-Th 08:30-12:30,13:30-18:00; Sa 08:30-12:00; Fr 08:30-12:30,13:30-17:00",92023,549f5e48-395e-4c5a-87b9-f827a8fe50b7,node/269306155
mairie,Mairie - Claye-Souilly,,Mairie de Claye-Souilly,+33 1 60 26 92 00,https://www.claye-souilly.fr/,contact@claye-souilly.fr,21770118400012,2.688024,48.946346,Centre Administratif 3 allée André-Benoist 77410 Claye-Souilly,"Mo-Th 08:30-12:00,13:30-17:30; Fr 08:30-12:00,13:30-17:00; Sa 09:00-12:00",77118,c4c7d81e-e1b8-4503-ad03-841cc0cd1899,node/2656471395
mairie,Mairie - Clichy-la-Garenne,,Mairie de Clichy-la-Garenne,+33 1 47 15 30 00,https://www.ville-clichy.fr/,,21920024300018,2.304835,48.902775,80 boulevard Jean-Jaurès 92110 Clichy,Mo-Fr 08:00-18:00; Sa 09:00-12:00,92024,470f8d8b-c2f2-4f08-89e3-21ee52d61cb8,way/74471585
mairie,Mairie - Clichy-sous-Bois,,Mairie de Clichy-sous-Bois,+33 1 43 88 96 04,https://clichy-sous-bois.fr,accueil.hdv@clichysousbois.fr,21930014200011,2.54611897469,48.9107093811,Place du 11-Novembre-1918 93390 Clichy-sous-Bois,Tu 10:00-17:30; Mo 09:00-17:30; We-Fr 09:00-17:30; Sa 09:00-12:30,93014,7493c233-b6c2-4a29-9d88-794857194492,way/77731966
mairie,Mairie - Clos-Fontaine,,Mairie de Clos-Fontaine,+33 1 64 08 03 44,,mairie.closfontaine@wanadoo.fr,21770119200015,3.016738,48.608576,7 rue de Nangis 77370 Clos-Fontaine,Mo 16:00-18:00; Th 16:00-18:00,77119,71c5458f-0c40-412f-9ae7-bc32fcb82651,node/4798915591
