categorie,official_name,branch,name,contact:phone,contact:website,contact:email,ref:FR:SIRET,longitude,latitude,address_txt,wheelchair,wheelchair:description,opening_hours,insee,id,osm_id
mairie,Mairie - Acoua,,Mairie d'Acoua,+262 2 69 62 18 81,,mairie.acoua@orange.fr,20000871200016,45.058284,-12.724469,  Place de la Mairie 97630 Acoua,yes,,"Mo-Th 07:00-12:00,13:00-16:00; Fr 07:00-11:30",97601,0e140e49-c437-465e-b369-3ad4f97cf599,node/6565538985
mairie,Mairie - Anse-Bertrand,,Mairie d'Anse-Bertrand,+590 5 90 89 48 48,https://www.ansebertrand.fr/,commune@mairieansebertrand.fr,21971102500011,-61.5161584,16.4709755,  Le Bourg 97121 Anse-Bertrand,no,,"Mo-Tu 08:00-13:00,14:30-17:30; We 08:00-13:30; Th 08:00-13:00,14:30-17:30; Fr 08:00-13:30",97102,29efd88b-eaac-43b6-aad2-49a4b7811c80,way/44366455
mairie,Mairie - Apatou,,Mairie d'Apatou,+594 5 94 34 91 37,,mairie.apatou@wanadoo.fr,21973360700010,-54.343792,5.155913,  23 avenue du Général-de-Gaulle 97317 Apatou,yes,,Mo-Fr 07:30-14:30,97360,738bf0fc-a3a8-4cca-b27e-3449a9a262a9,way/288987623
mairie,Mairie - Aubervilliers,,Mairie d'Aubervilliers,+33 1 48 39 52 00,https://www.aubervilliers.fr/,,21930001900011,2.3817895,48.91461,  2 rue de la Commune-de-Paris 93300 Aubervilliers,yes,ascenseur,Mo-Fr 08:30-17:00; Sa 08:30-12:00,93001,0706933e-c71d-409e-aa72-46db29fe49d3,relation/1131762
mairie,Mairie - Awala-Yalimapo,,Mairie d'Awala-Yalimapo,+594 5 94 34 76 76,,mairie@awala-yalimapo.fr,21973361500013,-53.932405,5.691046,2765 avenue du 31-Décembre-1988  Centre administratif 97319 Awala-Yalimapo,yes,,"Mo 08:00-14:30; Fr 08:00-14:00; Tu 08:00-13:00,14:00-17:30; We 08:00-14:30; Th 08:00-13:00,14:00-17:30",97361,74f7c925-e1cd-42d5-adba-9e5599e0c365,node/431261661
mairie,Mairie - Bagnolet,,Mairie de Bagnolet,+33 1 49 93 60 00,http://www.ville-bagnolet.fr,mairie@ville-bagnolet.fr,,2.416931,48.86876,  1 place Salvador-Allende 93171 Bagnolet Cedex,yes,,"Fr 13:30-17:00; Mo-Th 09:00-12:00,13:30-17:00; Sa 09:00-12:30",93006,b63ca7e7-8111-4f5d-b0d3-1c80b4f7ae64,relation/11750190
mairie,Mairie - Baie-Mahault,,Mairie de Baie-Mahault,+590 5 90 26 59 60,https://www.baiemahault.fr/,contact@baiemahault.fr,21971103300015,-61.5874352,16.2654712,Hôtel de Ville  Place Childéric Trinqueur 97122 Baie-Mahault,yes,,"Mo-Tu 08:00-14:00; We 08:00-12:30; Th 08:00-11:00,14:00-16:00; Fr 08:00-12:30",97103,dc71e8ca-b026-4369-9eee-f7a05ccb705b,way/178237246
mairie,Mairie - Baillif,,Mairie de Baillif,+590 5 90 99 11 70,https://ville-baillif.fr/,mairiedebaillif@ville-baillif.fr,21971104100018,-61.7414904,16.0301297,Rue des Anciennes Ecoles  Le Bourg 97123 Baillif,yes,,Mo-Fr 07:30-14:30,97104,7b620b63-86cf-4ff5-b396-6d18748c4f1b,way/41896036
mairie,Mairie - Bandraboua,,Mairie de Bandraboua,+262 2 69 62 54 18,http://www.mairie-bandraboua.fr,secretariat.direction@mairie-bandraboua.fr,20000872000019,45.12184,-12.704211,  238  rue de l'Hôtel-de-Ville 97650 Bandraboua,yes,,"Mo-Th 07:00-12:00,13:00-16:00; Fr 07:00-11:30",97602,6dcba774-37ef-4378-bea5-b5d32a9b6866,node/8979785290
mairie,Mairie - Bandrélé (Mayotte),,Mairie de Bandrélé (Mayotte),+262 2 69 62 19 81,https://bandrele.yt/,maire@bandrele.yt,20000873800011,45.1933338,-12.9107288,  Route Nationale 3 97660 Bandrele,no,,"Mo-Th 07:00-12:00,13:00-15:45; Fr 07:00-11:00",97603,a7ff756e-4bd3-4126-8172-57140ee01026,node/6564540340
mairie,Mairie - Basse-Pointe,,Mairie de Basse-Pointe,+596 5 96 78 50 44,https://villedebassepointe.fr,contact@villedebassepointe.fr,21972203000018,-61.1203363,14.8687313,  22 rue du Docteur Hippolyte Morestin 97218 Basse-Pointe,yes,,"Mo-Tu 07:30-13:00,14:30-17:00; We 07:30-13:00; Th 07:30-13:00,14:30-17:00; Fr 07:30-13:00",97203,b7469735-36a1-405a-80c1-d6197f2d8cd9,way/178916464
mairie,Mairie - Basse-Terre,,Mairie de Basse-Terre,+590 5 90 80 56 56,https://www.ville-basseterre.fr/,contact@ville-basseterre.fr,21971105800012,-61.7322635650635,15.9971815501316, Hôtel-de-Ville Cours-Nolivos 97100 Basse-Terre,yes,,"Mo-Tu 07:30-12:00,13:30-17:00; We 07:30-12:30; Th 07:30-12:00,13:30-17:00; Fr 07:30-12:30",97105,597b1720-8653-4ef4-b838-4841be6e62f4,way/66440877
mairie,Mairie - Beautheil-Saints,,Mairie de Beautheil-Saints,+33 1 64 03 17 14,http://www.paysdecoulommiers.fr,mairie.beautheilsaints@orange.fr,20008162800014,3.04642009735,48.7597999573,Saints  24 Grande rue 77120 Beautheil-Saints,yes,,Mo-Tu 08:30-11:30; Th-Fr 08:30-11:30; Sa 09:00-11:30,77433,5a81c3c0-991f-44ef-a699-d17e79fe96ad,Way/115175552
mairie,Mairie déléguée - Beautheil,,Mairie déléguée de Beautheil,+33 1 64 03 19 03,http://www.beautheil.fr,mairie@beautheil.fr,20008162800014,3.08678007126,48.7621002197,Beautheil  Rue de la Mairie 77120 Beautheil-Saints,yes,,"Tu 09:00-12:00,15:00-19:00; Th 09:00-12:00,15:00-19:00; Fr 09:00-12:00,15:00-19:00; Sa 10:00-12:00",77433,04ec2d67-66fb-4121-a26a-a4e0ad69fdeb ,node/1645394958
mairie,Mairie - Bellefontaine,,Mairie de Bellefontaine,+596 5 96 55 00 96,,mairie@ville-bellefontaine.fr,21972234500010,-61.1639,14.675,  Place Simon-Charles-François 97222 Bellefontaine,yes,,"Mo 07:30-12:30,14:30-17:30; Tu-We 07:30-14:00; Th 07:30-12:30,14:30-17:30; Fr 07:30-13:00",97234,c4a22c3e-ccbd-4c9d-bc5f-45b45faba22d,way/125079898
mairie,Mairie - Bobigny,,Mairie de Bobigny,+33 1 41 60 93 93,https://www.bobigny.fr/,,21930008400015,2.445042,48.906182,  31 avenue du Président-Salvador-Allende 93000 Bobigny,yes,,Mo-Fr 08:30-17:00; Sa 09:00-11:45,93008,f91ec498-396d-4ea7-aa5c-c5ed2cfed87b,way/77744232
mairie,Mairie - Bondy,,Mairie de Bondy,+33 1 48 50 53 00,https://www.ville-bondy.fr/,communication@ville-bondy.fr,21930010000019,2.482633,48.9021604,  Esplanade Claude-Fuzier 93143 Bondy Cedex,yes,monte-personne,Mo 09:00-17:15; Tu 10:30-19:15; We-Fr 09:00-17:15,93010,eb1dff87-9ca8-4f58-96f2-823afc7de6a4,way/84177487
mairie,Mairie - Bouillante,,Mairie de Bouillante,+590 5 90 98 70 04,https://www.ville-bouillante.fr/,courrier@ville-bouillante.fr,21971106600015,-61.76882,16.132712,Hôtel de ville  Le Bourg 97125 Bouillante,yes,,"Mo-Tu 08:00-12:30,14:00-17:30; We 08:00-13:30; Th 08:00-12:30,14:00-17:30; Fr 08:00-13:30",97106,d91d16b9-4445-46f6-b286-80fabfbb4753,way/41875548
mairie,Mairie - Bouéni,,Mairie de Bouéni,+262 2 69 62 16 31,,contact@boueni.fr,20000874600014,45.080349,-12.910355,  2 rue de la Fraternité 97620 Bouéni,yes,,"Mo-Th 07:15-12:00,13:00-16:00; Fr 07:15-11:15",97604,d2d0d944-ae70-4897-8f2a-b44fff4b61c4,way/755370480
mairie,Mairie - Bras-Panon,,Mairie de Bras-Panon,+262 2 62 51 50 50,https://www.braspanon.re,cabinet@braspanon.re,21974002400019,55.6756267,-20.9944907,  89 route nationale 2 97412 Bras-Panon,yes,,Mo-Th 08:00-16:30; Fr 08:00-12:00,97402,ddb044ae-b297-41ee-a265-f1b1663f24c2,relation/2972562
mairie,Mairie - Camopi,,Mairie de Camopi,+594 5 94 37 44 00,,,21973356500010,-52.3411,3.1655,  Bourg de Camopi 97330 Camopi,,,Mo-Fr 07:00-12:30,97356,8a242e55-e74f-48fd-8831-5b97ed13252a,node/4048975595
mairie,Mairie - Capesterre-Belle-Eau,,Mairie de Capesterre-Belle-Eau,+590 5 90 86 30 04,https://capesterrebelleeau.fr,contact@capesterrebelleeau.fr,21971107400019,-61.5651974,16.0430698,  Avenue Paul-Lacavé 97130 Capesterre-Belle-Eau,,,"Mo-Tu 07:30-12:30,14:00-17:00; We 07:30-13:00; Th 07:30-12:30,14:00-17:00; Fr 07:30-13:00",97107,e907770e-1333-40d0-bbde-b4aad025e03c,way/287147726
mairie,Mairie - Capesterre-de-Marie-Galante,,Mairie de Capesterre-de-Marie-Galante,+590 5 90 97 30 31,https://www.capesterredemariegalante.fr/,contact@capesterredemariegalante.fr,21971108200012,-61.2568777,15.9232223,  Place Félix-Éboué 97140 Capesterre-de-Marie-Galante,yes,,Mo-Tu 08:00-16:00; We 07:30-13:00; Th 08:00-16:00; Fr 07:30-13:00,97108,e5e7d933-8504-4bc7-97ff-2df5abc6b293,way/125323241
mairie,Mairie - Case-Pilote,,Mairie de Case-Pilote,+596 5 96 78 81 44,http://www.mairiecasepilote.fr,contact@mairiecasepilote.fr,21972205500015,-61.1388068,14.6430374,  Place Gaston-Monnerville 97222 Case-Pilote,yes,,"Mo 07:30-13:30,14:30-17:00; Tu-We 07:30-13:30; Th 07:30-13:30,14:30-17:00; Fr 07:30-13:30",97205,abe5569b-6d2d-4e0e-806c-31636812d7ff,way/177538596
mairie,Mairie - Cayenne,,Mairie de Cayenne,+594 5 94 39 70 70,http://www.ville-cayenne.fr/,contact@ville-cayenne.fr,21973302900017,-52.335024,4.938042,  1 rue de Rémire 97300 Cayenne,yes,rampe à l'arrière du bâtiment,Mo-Fr 07:30-14:00,97302,f67f764b-2c50-4e4b-9a03-7a714e234481,way/71470728
mairie,Mairie déléguée - Cucharmoy,,Mairie déléguée de Cucharmoy,+33 1 60 58 75 93,http://www.chenoise-cucharmoy.fr,mairie.cucharmoy@wanadoo.fr,20008403600041,3.19039,48.61097,Cucharmoy Place de l'Église Foyer rural 77160 Chenoise-Cucharmoy,yes,,Tu 08:30-12:00; Fr 08:30-12:00,77109,fab144cc-9570-4bcd-ab19-32d996daaba3,node/4798915881
mairie,Mairie - Chenoise-Cucharmoy,,Mairie de Chenoise-Cucharmoy,+33 1 64 00 91 18,,accueil@chenoise-cucharmoy.fr,20008403600041,3.195381,48.616363,Chenoise  1 ruelle saint loup 77160 Chenoise-Cucharmoy,yes,,"Mo-Tu 08:30-12:00,13:30-17:00; We 08:30-12:00; Th-Fr 08:30-12:00,13:30-17:00; Sa 09:30-11:30",77109,5de54c6b-def3-4b27-912d-a8cf74e0885a ,way/161044237
mairie,Mairie - Chiconi,,Mairie de Chiconi,+262 2 69 62 16 90,http://www.villedechiconi.fr,mairie@villedechiconi.fr,20000875300010,45.114157,-12.833038,  4 rue de l'Hôtel de ville 97670 Chiconi,yes,,"Mo-Th 07:00-12:00,13:30-16:15; Fr 07:00-11:00",97605,79ead539-37f2-48a1-88b3-ea81787b99fb,node/4737488821
mairie,Mairie - Chirongui,,Mairie de Chirongui,+262 2 69 62 18 03,,,20000877900015,45.1463158,-12.9374413,  11 rue de l’Hôtel-de-ville 97620 Chirongui,yes,,Mo-Th 07:30-16:30; Fr 07:00-11:00,97606,801d46a0-8383-451a-8994-0e1b5e5842d0,node/4382643974
mairie,Mairie - Cilaos,,Mairie de Cilaos,+262 2 62 31 89 89,http://www.ville-cilaos.fr,cabinet.maire.cilaos@ville-cilaos.fr,21974024800014,55.463134,-21.136617,  66 rue du Père-Boiteau 97413 Cilaos,yes,,"Mo-Th 08:00-12:00,12:45-16:30; Fr 08:00-12:00",97424,6b917eed-351b-4dba-9317-fc69de0cfe54,node/1928575754
mairie,Mairie - Clichy-sous-Bois,,Mairie de Clichy-sous-Bois,+33 1 43 88 96 04,http://www.clichysousbois.fr,accueil.hdv@clichysousbois.fr,21930014200011,2.54611897469,48.9107093811,  Place du 11-Novembre-1918 93390 Clichy-sous-Bois,yes,"rampe, rez-de-chaussée",Tu 10:00-17:30; Mo 09:00-17:30; We-Fr 09:00-17:30; Sa 09:00-12:30,93014,7493c233-b6c2-4a29-9d88-794857194492,way/77731966
mairie,Mairie - Coubron,,Mairie de Coubron,+33 1 43 88 51 45,http://www.coubron.fr,,21930015900015,2.576869,48.915764,  133 rue Jean-Jaurès 93470 Coubron,,ascenseur par l'arrière de la mairie,,93015,4cd09b6e-4830-4e66-9557-475211532082,way/145232333
mairie,Mairie - Dembeni,,Mairie de Dembeni,+262 2 69 62 15 81,https://ville-dembeni.fr/,mairie-de-dembeni@wanadoo.fr,20000878700018,45.1857186,-12.8423994,  Place de la Mairie 97660 Dembeni,yes,,"Mo-Fr 07:00-12:00,12:52-15:30",97607,523f9d2d-d269-4717-b230-8441ad063022,node/9331359740
mairie,Mairie - Deshaies,,Mairie de Deshaies,+590 5 90 28 44 44,https://www.villededeshaies.fr,secretariat.deshaies@hotmail.fr,21971111600018,-61.7897365,16.3108369,  238 boulevard des Poissonniers 97126 Deshaies,yes,,Mo-Fr 07:30-14:30,97111,7d52a576-c119-48ae-be06-5360dc56f098,way/41767073
mairie,Mairie - Drancy,,Mairie de Drancy,+33 1 48 96 50 00,https://www.drancy.fr,mairie@drancy.fr,21930029000018,2.49926996231,48.9341011047,  Place de l'Hôtel-de-Ville 93700 Drancy,yes,plain-pied,Mo-We 09:00-17:30; Th 09:00-19:30; Fr 09:00-17:30; Sa 09:00-12:00,93029,617abe4b-a3ab-41a1-9fc9-b76c030f46c3,relation/6866540
mairie,Mairie - Ducos,,Mairie de Ducos,+596 5 96 77 18 18,,courrier@mairie-ducos.fr,21972207100012,-60.9749579429626,14.5750690932533,  1 rue Zizine-et-des-Étages 97224 Ducos,yes,,"Mo-Tu 07:30-12:30,14:00-17:30; We-Fr 07:30-13:30",97207,43efc528-f165-40ff-838c-392f2a6155bc,way/47053205
mairie,Mairie - Dugny,,Mairie de Dugny,+33 1 49 92 66 66,https://ville-dugny.fr/,,21930030800018,2.417557,48.955423,  1 rue de la Résistance 93440 Dugny,yes,plain-pied,"Mo-We 08:30-12:00,13:30-17:30; Th 08:30-12:00; Fr 08:30-12:00,13:30-17:30",93030,ab1abcbe-ed56-42a2-8af5-9ab277579e03,node/4590640043
mairie,Mairie - Dzaoudzi,,Mairie de Dzaoudzi,+262 2 69 60 11 75,http://djabir.abdallah.free.fr/,mairie@dzaoudzi-labattoir.fr,20000879500011,45.270372,-12.7878822,  Rue de l'Hôtel-de-Ville 97610 Dzaoudzi-Labattoir,yes,,"Mo-Th 07:30-12:00,13:00-16:00; Fr 07:00-12:00",97608,2c6a8359-fe57-4742-ac70-89c8c68937ba,node/1871359412
mairie,Mairie - Entre-Deux,,Mairie d'Entre-Deux,+262 2 62 39 50 50,http://www.village-entredeux.fr,communication@entredeux.re,21974003200012,55.4699924,-21.2488961,  2 rue Fortuné-Hoarau 97414 Entre-Deux,yes,,Mo-Th 07:45-16:15; Fr 07:45-15:00,97403,84cf1df4-cd43-4984-82fb-c967b9078194,way/69579763
mairie,Mairie - Fonds-Saint-Denis,,Mairie de Fonds-Saint-Denis,+596 5 96 55 88 88,,mairie.fondssaint-denis@wanadoo.fr,21972208900014,-61.1321528,14.7384613,  Le Bourg 97250 Fonds-Saint-Denis,yes,,"Mo 07:30-13:30,14:30-17:00; Tu-We 07:30-13:30; Th 07:30-13:30,14:30-17:00; Fr 07:30-13:30",97208,6868f0c7-f088-4e29-963e-6173f0baa8dd,way/125364972
mairie,Mairie - Gourbeyre,,Mairie de Gourbeyre,+590 5 90 99 08 15,http://www.ville-gourbeyre.fr,contact@ville-gourbeyre.fr,21971109000015,-61.6830286,15.9897804,  Avenue Louis-Philippe-Lonqueteau 97113 Gourbeyre,yes,,"Mo-Tu 07:30-12:30,14:00-17:00; We 07:30-13:00; Th 07:30-12:30,14:00-17:00; Fr 07:30-13:00",97109,1d703b2c-8592-4393-be83-e44e67701314,way/300276061
mairie,Mairie - Gournay-sur-Marne,,Mairie de Gournay-sur-Marne,+33 1 43 05 06 41,http://www.ville-gournay-sur-marne.fr,contact@gournay-sur-marne.fr,21930033200018,2.573179,48.863521,  10 avenue du Maréchal-Foch 93460 Gournay-sur-Marne,yes,plain-pied,"Mo-Fr 08:30-12:00,13:30-17:30",93033,204400b3-9717-4ef1-bec0-181dffeac4b6,node/796694179
mairie,Mairie - Goyave,,Mairie de Goyave,+590 5 90 95 91 11,https://villedegoyave.fr/fr/,contact@villedegoyave.fr,21971114000018,-61.5753973,16.1335034,  Rue des Écoles 97128 Goyave,yes,,"Mo-Tu 07:30-12:30,14:00-17:00; We 07:30-13:00; Th 07:30-12:30,14:00-17:00; Fr 07:30-13:00",97114,2f482bd7-9f37-41a0-8291-d12893120a3a,relation/279079
mairie,Mairie - Grand'Rivière,,Mairie de Grand'Rivière,+596 5 96 55 77 77,https://www.grand-riviere.com/,villedegrandriviere97218@orange.fr,21972211300012,-61.1783,14.8731,  71 avenue du Général-de-Gaulle 97218 Grand'Rivière,yes,,"Mo-Tu 07:30-12:30,13:30-17:15; We 07:30-13:30; Th 07:30-12:30,13:30-17:15; Fr 07:30-13:30",97211,bfd68e11-b915-4515-a77d-08461f895280,way/125070748
mairie,Mairie - Grand-Bourg,,Mairie de Grand-Bourg,+590 5 90 97 90 08,https://grand-bourg.fr,secretariat@grand-bourg.fr,21971112400012,-61.2568777,15.9232223,Hôtel de Ville  Place Schoelcher 97112 Grand-Bourg,yes,,"Mo-Tu 08:00-12:30,14:00-17:00; We 08:00-14:15; Th 08:00-12:30,14:00-17:00; Fr 08:00-14:15; Sa 08:00-11:00",97112,a6e80ecb-28d9-4738-bdeb-6023b69134ba,node/11181720162
mairie,Mairie - Grand-Santi,,Mairie de Grand-Santi,+594 5 94 37 41 10,http://www.grandsanti.fr,accueil@grandsanti.fr,21973357300014,-54.38225,4.2507342,Hôtel de Ville  Le bourg 97340 Grand-Santi,no,,"Mo 07:30-13:30; Tu 07:30-13:30,15:00-17:30; We 07:30-13:30; Th 07:30-13:30,15:00-17:30; Fr 07:30-13:30",97357,dc875459-525d-41fd-a2a2-503b9d3e9412,way/208418052
mairie,Mairie - Le Gros-Morne,,Mairie du Gros-Morne,+596 5 96 67 50 11,,contact.mairie@ville-grosmorne.fr,21972212100015,-61.004829,14.710188,  2 rue Schoelcher 97213 Gros-Morne,yes,,Mo 07:30-17:30; Tu 07:30-13:30; We 07:30-13:00; Th 07:30-17:30; Fr 07:30-13:00,97212,b14652f2-24b2-414d-902c-607d6450386f,way/178213097
mairie,Mairie - Iracoubo,,Mairie d'Iracoubo,+594 5 94 34 60 06,,ac.iracoubo@gmail.com,21973303700010,-53.212349,5.474074,  Place Edmé-Lama 97350 Iracoubo,no,,Mo-Fr 07:30-12:30,97303,3c93c068-d342-4f66-a086-f6a837478efc,way/299920668
mairie,Mairie - Kani-Kéli,,Mairie de Kani-Kéli,+262 2 69 62 17 31,,mairiedekanikeli@mairiedekanikeli.fr,20000880300013,45.104173,-12.957248,  1 rue de la Mairie 97625 Kani-Kéli,yes,,"Mo-Th 07:30-12:00,13:00-16:15; Fr 07:30-12:00",97609,56c7ea77-30b0-4871-a72e-a2ac69cd32be,node/3854441761
mairie,Mairie - Koungou,,Mairie de Koungou,+262 2 69 61 42 42,,contact@koungou.fr,20000881100016,45.2071,-12.7385,  1 place de La Liberté 97690 Koungou (Mayotte),no,,Mo-Th 07:30-15:00; Fr 07:30-12:00,97610,8c7b73f5-7964-42e0-b841-2eb7e6e9be79,node/7088130050
mairie,Mairie - Ajoupa-Bouillon,,Mairie d'Ajoupa-Bouillon,+596 5 96 53 32 22,,mairie.ajoupabouillon@wanadoo.fr,21972201400012,-61.1147547,14.8248643,  Le Bourg 97216 L'Ajoupa-Bouillon,yes,,"Mo-Tu 07:30-13:30,15:00-17:30; We 07:30-13:30; Th 07:30-13:30,15:00-17:30; Fr 07:30-13:30",97201,1e6fa274-9851-4fb6-82a4-51970221a4cd,way/125092614
mairie,Mairie - L'Étang-Salé,,Mairie de L'Étang-Salé,+262 2 62 33 43 33,https://www.letangsale.fr/,mairie@letangsale.fr,21974004000015,55.365804,-21.265063,  73 avenue Raymond-Barre 97427 L'Étang-Salé,yes,,"Mo-Fr 08:00-12:00,13:00-16:00",97404,48931056-a2ba-4eb1-b895-f9e93bdf4e68,way/134389169
mairie,Mairie - L'Île-Saint-Denis,,Mairie de L'Île-Saint-Denis,+33 1 49 22 11 00,http://www.lile-saint-denis.fr,mairie@lile-saint-denis.fr,21930039900017,2.33945989609,48.935798645,  1 rue Méchin 93450 L'Île-Saint-Denis,yes,rampe,"Sa 09:00-12:00; Mo-Fr 08:30-12:30,13:30-17:30",93039,c0063fb3-66af-47e7-8b8f-7464c8e7843a,way/63229797
mairie,Mairie - La Courneuve,,Mairie de La Courneuve,+33 1 49 92 60 00,https://lacourneuve.fr,regards@ville-la-courneuve.fr,21930027400012,2.38913011551,48.9269981384,  Avenue de la République 93120 La Courneuve,yes,rampe,"Tu 13:30-17:30; Mo 08:30-12:00,13:30-17:30; We-Fr 08:30-12:00,13:30-17:30; Sa 08:30-12:00",93027,5e566cc0-af29-41b5-b979-44af8c4e1fb2,way/67177553
mairie,Mairie - La Désirade,,Mairie de La Désirade,+590 5 90 20 01 76,https://www.mairie-ladesirade.fr/,,21971110800015,-61.0908086,16.3003325,  Place du Maire Mendiant 97127 La Désirade,yes,,"Mo-Tu 08:00-12:00,14:00-17:00; We 08:00-13:00; Th 08:00-12:00,14:00-17:00; Fr 08:00-13:00",97110,a6b02fe4-302e-4a4c-ae02-7ea780d38629,way/66514765
mairie,Mairie - La Plaine-des-Palmistes,,Mairie de La Plaine-des-Palmistes,+262 2 62 51 49 10,http://www.ville-plainedespalmistes.fr,mairie@plaine-des-palmistes.fr,21974006500012,55.6288605,-21.1342563,  230 rue de la République 97431 La Plaine-des-Palmistes,yes,,Mo-Th 08:00-16:30; Fr 08:00-12:00,97406,b18ca6c5-2f9c-4417-b9a3-2695c15a759d,way/67317511
mairie,Mairie - La Possession,,Mairie de La Possession,+262 2 62 22 20 02,https://www.lapossession.re,courrier@lapossession.re,21974008100019,55.335704,-20.932987,  Rue Waldeck-Rochet 97419 La Possession,yes,,Mo-Th 08:30-16:00; Fr 08:30-15:00,97408,c0c8de37-f768-4ab7-87ee-510c3b0896f0,way/147871237
mairie,Mairie - La Trinité,,Mairie de La Trinité,+596 5 96 58 20 12,https://www.mairie-latrinite.fr/,contact@mairie-latrinite.fr,21972230300019,-60.962778,14.738553,  51 avenue Casimir-Branglidor 97220 La Trinité,yes,,"Mo 07:30-13:30,14:00-17:00; Tu-We 07:30-13:30; Th 07:00-13:30,14:00-17:00; Fr 07:30-13:30",97230,91224c84-fb42-4957-afd7-603a0cdebb29,way/287480575
mairie,Mairie - Lamentin,,Mairie de Lamentin,+590 5 90 25 36 25,https://villelamentin971.fr/,,21971115700012,-61.635401,16.271208,  Rue de la République 97129 Lamentin,yes,,"Mo-Tu 08:00-12:45,14:00-17:30; We 08:00-13:00; Th 08:00-12:45,14:00-17:30; Fr 08:00-13:15",97115,4ff6951d-4333-4f9d-b4d7-50803cd5c57a,way/41586004
mairie,Mairie - Le Blanc-Mesnil,,Mairie du Blanc-Mesnil,+33 1 45 91 70 70,https://www.blancmesnil.fr/,,21930007600011,2.463939,48.938835,  1 place Gabriel-Péri 93150 Le Blanc-Mesnil,yes,rampe,"Mo 09:00-12:30,14:00-17:30; Tu 14:00-17:30; We-Fr 09:00-12:30,14:00-17:15; Sa 09:00-11:45",93007,d2636c0d-5766-4ab1-925e-708f7aba3051,way/84289457
mairie,Mairie - Le Bourget,,Mairie du Bourget,+33 1 48 38 82 82,http://www.le-bourget.fr,,21930013400018,2.42577004433,48.9348983765,  65 avenue de la Division-Leclerc 93350 Le Bourget,yes,,"Sa 08:30-11:45; Mo-Fr 08:30-11:45,13:30-17:30",93013,c4a49ae6-5b35-4b63-b805-e7f8ba71cb17,way/79310436
mairie,Mairie - Le Carbet,,Mairie du Carbet,+596 5 96 78 00 40,https://www.villeducarbet.fr/,mairie@villeducarbet.fr,21972204800010,-61.183628,14.712403,  1 place Jules-Grevy 97221 Le Carbet,yes,,"Mo 07:00-13:00,14:30-17:00; Tu-We 07:00-13:00; Th 07:00-13:00,14:30-17:00; Fr 07:00-13:00",97204,11810d3d-56db-43f2-866a-075fa675f1a7,way/178860441
mairie,Mairie - Le Diamant,,Mairie du Diamant,+596 5 96 76 40 11,https://villedudiamant.fr/,contact@mairie-diamant.fr,21972206300019,-61.025507,14.479923,  45 rue Justin-Roc 97223 Le Diamant,yes,,"Mo 07:30-13:00,15:00-17:00; Tu-We 07:30-13:30; Th 07:30-13:00,15:00-17:00; Fr 07:30-13:30",97206,46489f37-863b-4e2f-9be6-790adbd3adb5,way/919944348
mairie,Mairie - Le François,,Mairie du François,+596 5 96 54 30 02,,service.courrier@ville-francois.fr,21972210500018,-60.887727,14.612674,  Place Charles-de-Gaulle 97240 Le François,yes,,"Mo 07:30-13:30,14:30-17:30; Tu-We 07:30-13:30; Th 07:30-13:30,14:30-17:30; Fr 07:30-13:30",97210,51f8f2f5-00d0-4f79-8544-031a8270fba9,way/177724734
mairie,Mairie - Le Gosier,,Mairie du Gosier,+590 5 90 84 86 86,https://www.villedugosier.fr/,courrier@villedugosier.fr,21971113200015,-61.4904644,16.2061387,  67 boulevard du Général-de-Gaulle 97190 Le Gosier,yes,,"Mo-Tu 07:30-13:00,14:30-17:00; We 07:30-13:00; Th 07:30-13:00,14:30-17:00; Fr 07:30-13:00",97113,2d2b93f5-c693-4682-9402-c95980c39aba,way/47005366
mairie,Mairie - Le Lamentin,,Mairie du Lamentin,+596 5 96 66 68 88,http://www.mairie-lelamentin.fr,contact@mairie-lelamentin.fr,21972213900017,-61.0014528036,14.6174507411,  Place Antonio-Macéo 97232 Le Lamentin,yes,,Mo 07:30-17:00; Tu-We 07:30-14:00; Th 07:30-17:00; Fr 07:30-14:00,97213,029e81ab-67d0-4fad-85ec-f8ac9212ce31,way/1101746564
mairie,Mairie - Le Lorrain,,Mairie du Lorrain,+596 5 96 53 44 22,https://villedulorrain.com/v2/,,21972214700010,-61.055546,14.832831,  19 rue Schoelcher 97214 Le Lorrain,no,,"Mo-Tu 07:00-13:00,14:00-17:00; We 07:00-13:00; Th 07:00-13:00,14:00-17:00; Fr 07:00-13:00",97214,25917ab3-62e8-49a4-87d9-cf8e880993bc,way/181135244
mairie,Mairie - Marigot,,Mairie de Marigot,+596 5 96 53 50 09,,ville@97225marigot.com,21972216200019,-61.0088969,14.7941234,  Lotissement La Marie 97225 Le Marigot,yes,,"Mo-Tu 08:00-12:00,14:00-17:30; We 08:00-13:30",97216,1b0c6a82-5e65-47f0-8f34-ec30ace3a0ed,way/125338094
mairie,Mairie - Le Marin,,Mairie du Marin,+596 5 96 74 90 02,,ville-marin@wanadoo.fr,21972217000012,-60.8708138,14.4714242,  26 rue Osman-Duquesnay 97290 Le Marin,yes,,"Mo 07:30-13:30,14:30-17:00; Tu-We 07:30-13:30; Th 07:30-13:30,14:30-17:00; Fr 07:30-13:30",97217,16158bbc-be57-4398-b93d-767449a971f1,way/287779465
mairie,Mairie - Le Morne-Rouge,,Mairie du Morne-Rouge,+596 5 96 52 30 23,,mairie@ville-mornerouge.fr,21972218800014,-61.1385059,14.7696428,  Avenue Edgard-Nestoret 97260 Le Morne-Rouge,yes,,"Mo 07:30-13:00,14:00-18:00; Tu-We 07:30-13:30; Th 07:30-13:00,14:00-18:00; Fr 07:30-13:30",97218,681274a5-9968-4d67-b80a-7f31d4665805,way/179325994
mairie,Mairie - Le Morne-Vert,,Mairie du Morne-Vert,+596 5 96 55 51 47,http://www.morne-vert.fr,mairie@morne-vert.fr,21972233700017,-61.1444,14.7069,  Rue Louis-Morin 97226 Le Morne-Vert,yes,par l'arrière de la mairie,"Mo 07:00-13:00,14:30-16:30; Tu-We 07:00-13:30; Th 07:00-13:00,14:30-16:30; Fr 07:00-13:00",97233,4aeb83c6-be08-4fd0-925b-462c914dd1ef,way/125354267
mairie,Mairie - Le Moule,,Mairie du Moule,+590 5 90 23 09 00,http://www.mairie-lemoule.fr,,21971117300019,-61.3444,16.3306,  Rue Joffre 97160 Le Moule,yes,,"Mo-Tu 08:00-13:00,14:00-17:00; We 07:30-13:30; Th 08:00-13:00,14:00-17:00; Fr 08:00-13:00",97117,df65a13e-f551-4529-8068-728a61978a25,way/130362767
mairie,Mairie - Le Port (La Réunion),,Mairie du Port (La Réunion),+262 2 62 42 87 00,https://www.ville-port.re/,internet@ville-port.re,21974007300016,55.29011,-20.93588,  9 rue Renaudière-Devaux 97420 Le Port,yes,,Mo-Th 08:00-16:30; Fr 08:00-12:00,97407,62564faf-e545-40b9-b466-21d023a6ad52,way/64489671
mairie,Mairie - Prêcheur,,Mairie de Prêcheur,+596 5 96 52 98 62,,secretariat@mairie-precheur.com,21972219600017,-61.2245039,14.8010707,  Le Bourg 97250 Le Prêcheur,yes,,"Mo 07:30-13:00,14:30-17:00; Tu-We 07:30-14:00; Th 07:30-13:00,14:30-17:00; Fr 07:30-13:30",97219,af886d10-c909-4d1e-8b2a-b67c3c10fd56,way/125351883
mairie,Mairie - Le Raincy,,Mairie du Raincy,+33 1 43 02 42 00,https://leraincy.fr/,leraincy@leraincy.fr,21930062100014,2.51647,48.898311,  121 avenue de la Résistance 93346 Le Raincy Cedex,no,,"Mo 08:30-12:00,13:30-17:30; Tu 13:30-20:00; We-Fr 08:30-12:00,13:30-17:30",93062,ee01d858-113f-4afc-a51d-180e1b514f58,way/144236246
mairie,Mairie - Le Robert,,Mairie du Robert,+596 5 96 65 10 05,http://www.ville-robert.fr,contact@ville-robert.fr,21972222000015,-60.9392416,14.677557,  Rue Vincent-Allègre 97231 Le Robert,yes,,"Mo 07:30-13:30,14:30-17:00; Tu-We 07:30-13:30; Th 07:30-13:30,14:30-17:00; Fr 07:30-13:30",97222,63bfb107-6390-4788-be00-5d38c88fa72c,way/177871287
mairie,Mairie - Le Tampon,,Mairie du Tampon,+262 2 62 57 86 86,http://www.letampon.fr,courrier@mairie-tampon.fr,21974022200019,55.513628,-21.275497,  256 rue Hubert-Delisle 97430 Le Tampon,yes,,"Mo-Fr 08:00-12:00,13:30-16:30",97422,a2b3ffe2-81ec-4531-9077-9328a1694e66,way/130591357
mairie,Mairie - Le Vauclin,,Mairie du Vauclin,+596 5 96 74 40 40,http://ville-vauclin.fr,,21972232900014,-60.8389,14.5444,  2 rue Collignon 97280 Le Vauclin,yes,,"Mo-Tu 07:30-13:00,14:00-17:00; We-Fr 07:30-13:30",97232,70e51cd4-bfa4-4f0e-9ff0-6f4736a900b2,way/178030004
mairie,Mairie - Les Abymes,,Mairie des Abymes,+590 5 90 93 80 80,https://www.abymes.fr/,contact@ville-des-abymes.fr,21971101700018,-61.505391,16.270811,  Rue Achille-René-Boisneuf 97139 Les Abymes,yes,,Mo-Fr 07:30-14:30,97101,61fdff05-30a0-4b27-b34c-3fabef3ccf21,node/6163688637
mairie,Mairie - Les Anses-d'Arlet,,Mairie des Anses-d'Arlet,+596 5 96 68 62 02,https://ville-ansesdarlet.fr,mairie@mairie-anses-arlet.fr,21972202200015,-61.08012,14.49102,  Rue Félix Éboué 97217 Les Anses-d'Arlet,yes,,Tu-We 07:30-13:30; Fr 07:30-13:30,97202,07627f59-349d-4ff7-9eab-30c312b8c94e,way/42726782
mairie,Mairie - Les Avirons,,Mairie des Avirons,+262 2 62 38 02 66,http://www.mairie-avirons.fr,contact@mairie-avirons.fr,21974001600130,55.333025,-21.241895,  61 avenue du Général-de-Gaulle 97425 Les Avirons,yes,,"Mo-Th 08:00-12:00,12:45-16:00; Fr 08:00-12:00,13:00-15:00",97401,41665179-a4ac-46d6-b4a9-a869b611a862,node/2340360995
mairie,Mairie - Les Lilas,,Mairie des Lilas,+33 1 43 62 82 02,https://www.ville-leslilas.fr/,,21930045600015,2.415881,48.879396,  96 rue de Paris 93260 Les Lilas,yes,plain-pied,"Mo-We 08:30-12:00,13:45-17:00; Th 13:45-17:00; Fr 08:30-12:00,13:45-17:00",93045,9cab498c-1bc8-44a0-b82f-b6c51a4ecc2b,way/73428519
mairie,Mairie - Les Trois-Bassins,,Mairie des Trois-Bassins,+262 2 62 24 80 03,http://www.trois-bassins.re,contact@ville-troisbassins.re,21974023000012,55.3309395,-21.1009479,  2 rue du Général-de-Gaulle 97426 Les Trois-Bassins,yes,,"Mo-Th 08:00-12:15,13:00-16:00; Fr 08:00-12:15,13:00-15:15",97423,81f91db2-349f-4859-b487-e20d482fbad6,node/1449125319
mairie,Mairie - Les Trois-Îlets,,Mairie des Trois-Îlets,+596 5 96 68 31 11,https://villedestroisilets.com/,secretariat@mairie-trois-ilets.fr,21972231100012,-61.033824,14.538555,1 rue Épiphane-de-Moirans  Centre administratif 97229 Les Trois-Îlets,yes,,"Mo 07:30-13:30,14:30-17:00; Tu-We 07:30-13:30; Th 07:30-13:30,14:30-17:00; Fr 07:30-13:30",97231,0ee1394a-9c8f-41e0-a6e4-c72f9de55465,way/285952963
mairie,Mairie - Livry-Gargan,,Mairie de Livry-Gargan,+33 1 41 70 88 00,http://www.livry-gargan.fr,courriermaire@livry-gargan.fr,21930046400019,2.5373755,48.9194246,  3 place François-Mitterrand 93190 Livry-Gargan,yes,plain-pied,Sa 08:30-12:30; Mo 13:30-17:30; Tu-Fr 08:30-12:00,93046,65e4addc-78e2-4f3e-9a61-0d5dc0c29b4e,way/145134482
mairie,Mairie - M'Tsangamouji,,Mairie de M'Tsangamouji,+262 2 69 62 15 20,https://www.mairiedemtsangamouji.fr/,secretariat@mairiedemtsangamouji.fr,20000882900018,45.08394,-12.76141,  407 boulevard Amir Ridjali 97650 M'Tsangamouji,yes,,"Mo-Th 07:30-12:00,13:00-16:00; Fr 07:00-12:00",97613,a996308b-c140-4eaa-9657-1e702d3ee4c0,node/7121535486
mairie,Mairie - Macouba,,Mairie de Macouba,+596 5 96 78 53 68,,dgsmairiemacouba@gmail.com,21972215400016,-61.1145437,14.8698234,  Rue Victor-Hugo 97218 Macouba,yes,,"Mo 07:30-13:00,14:30-17:30; Tu-We 07:30-13:30; Th 07:30-13:00,14:30-17:30; Fr 07:30-13:30",97215,0323a7a7-8ec6-412d-91b0-3c799b503c6a,way/125084895
mairie,Mairie - Mamoudzou,,Mairie de Mamoudzou,+262 2 69 66 50 10,https://www.mamoudzou.yt/,secretariat.dgs@mamoudzou.yt,20000883700011,45.232566,-12.780584,  59 boulevard Halidi-Selemani 97600 Mamoudzou,limited,,Mo-Th 07:30-15:30; Fr 07:30-11:30,97611,6415ca5a-f0c2-4fff-8b49-fd8845f141ad,way/1069354300
mairie,Mairie - Mana,,Mairie de Mana,+594 5 94 34 82 68,http://www.mairie-mana.fr,venise.bacoul@mairie-mana.fr,21973306000012,-53.778,5.6697,  1 place Yves-Patient 97360 Mana,yes,,"Mo 07:30-13:30; Tu 07:30-13:30,15:00-17:30; We 07:30-13:30; Th 07:30-13:30,15:00-17:30; Fr 07:30-13:30",97306,eb5e1839-06b9-42d8-b61e-35234d4375cd,node/3338591311
mairie,Mairie - Maripasoula,,Mairie de Maripasoula,+594 5 94 37 21 50,,administration.generale@ville-maripa-soula.fr,21973353200010,-54.0338,3.6444,  Promenade du Lawa 97370 Maripasoula,yes,,"Mo 07:30-13:00,15:00-18:00; Tu-We 07:30-13:30; Th 07:30-13:30,15:00-18:00; Fr 07:30-13:30",97353,09da4690-35a1-4a58-a330-978a068b4985,node/7681325379
mairie,Mairie - Matoury,,Mairie de Matoury,+594 5 94 35 32 32,,cabinet@mairie-matoury.fr,21973307800014,-52.3297772,4.8488395,  1 rue Victor-Ceide 97351 Matoury,yes,,"Mo-Tu 08:00-13:00,15:00-18:00; We 08:00-13:30; Th 08:00-13:00,15:00-18:00; Fr 08:00-13:30",97307,6ca7b477-ecb4-4821-bce9-70a9583f57cc,way/96405274
mairie,Mairie - Montfermeil,,Mairie de Montfermeil,+33 1 41 70 70 70,http://www.ville-montfermeil.fr,contact@ville-montfermeil.fr,21930047200194,2.5710208,48.9022405,  7 place Jean-Mermoz 93370 Montfermeil,yes,plain-pied,"Mo 08:30-12:00,13:45-17:15; Tu 08:30-12:00; We-Th 08:30-12:00,13:45-17:15; Fr 08:30-12:00,13:45-16:45; Sa 08:30-11:45",93047,97150da9-29ed-4a7d-ba57-ed1112be44d4,node/6781559119
mairie,Mairie - Montsinéry-Tonnégrande,,Mairie de Montsinéry-Tonnégrande,+594 5 94 31 39 41,http://www.montsinery-tonnegrande.fr,mairie@montsinery-tonnegrande.fr,21973313600010,-52.492769,4.893276,  12 rue du Gouverneur-Félix-Éboué 97356 Montsinéry-Tonnégrande,yes,,"Mo 08:00-15:00; Tu 08:00-13:00,14:00-17:00; We 08:00-15:00; Th 08:00-13:00,14:00-17:00; Fr 08:00-13:00",97313,fdd5ebc5-3743-4287-89de-e53131914f48,way/96392025
mairie,Mairie déléguée - Veneux-les-Sablons,,Mairie déléguée de Veneux-les-Sablons,+33 1 60 70 52 38,http://moretloingetorvanne.fr/,accueil.veneux@moretloingetorvanne.fr,20007303900014,2.7948899,48.3779983,Veneux-les-Sablons  Place du 11-Novembre-1918 77250 Moret-Loing-et-Orvanne,yes,,"Mo-Fr 09:00-12:00,15:00-17:30; Sa 09:00-12:00",77316,9ae98d24-adb8-4336-acde-e709a1d66509 ,node/1475296413
mairie,Mairie - Moret-Loing-et-Orvanne,,Mairie de Moret-Loing-et-Orvanne,+33 1 60 73 51 51,https://moretloingetorvanne.fr/,accueil.moret@moretloingetorvanne.fr,20007303900014,2.8154686,48.3734924,  26 rue Grande 77250 Moret-Loing-et-Orvanne,yes,monte personne,"Mo-Th 09:00-12:00,14:30-17:30; Fr 09:00-12:00,14:30-17:15; Sa 09:30-12:00",77316,353b2413-1579-4979-b81f-5e664c1c0437 ,way/14013581
mairie,Mairie - Morne-à-L'Eau,,Mairie de Morne-à-L'Eau,+590 5 90 24 27 09,https://www.ville-mornealeau.com,cabinet@mornealeau.fr,21971116500015,-61.4569,16.3322,Hôtel de ville  Place Gerty Archimède 97111 Morne-à-L'Eau,yes,rampe,"Mo-Tu 07:30-12:30,14:30-17:30; We 07:30-13:00; Th 07:30-12:30,14:30-17:30; Fr 07:30-13:00",97116,93412414-52eb-4078-bb36-a5747ec2cba1,way/41455164
mairie,Mairie - Mtsamboro,,Mairie de Mtsamboro,+262 2 69 62 19 50,https://www.mairie-mtsamboro.fr/,mairie@mairie-mtsamboro.fr,20000884500014,45.0699213,-12.6971671,  170 avenue de la Mairie 97630 Mtsamboro,yes,,"Mo-Th 07:00-12:00,13:00-15:30; Fr 07:00-11:00",97612,b8f0732e-3633-4582-bbb8-ca127f46cea6,way/761724270
mairie,Mairie - Neuilly-sur-Marne,,Mairie de Neuilly-sur-Marne,+33 1 43 08 96 96,https://www.neuillysurmarne.fr,site.ville@neuillysurmarne.fr,21930050600017,2.52872991562,48.8567008972,  1 place François-Mitterrand 93330 Neuilly-sur-Marne,yes,,"Mo-Fr 09:00-12:00,14:00-18:00; Sa 09:00-12:00",93050,a78de23f-931b-44dd-bfee-33cc7d1855e1,way/145440091
mairie,Mairie - Noisy-le-Sec,,Mairie de Noisy-le-Sec,+33 1 49 42 66 00,http://www.noisylesec.fr,maire@noisylesec.fr,21930053000017,2.45180988312,48.8899002075,  Place du Maréchal-Foch 93134 Noisy-le-Sec,yes,,"Mo-Fr 09:00-12:30,13:30-18:00; Sa 09:00-12:00",93053,6492d223-530f-4f79-9df9-155e3a564f40,way/84106246
mairie,Mairie - Ouanary,,Mairie d'Ouanary,+594 5 94 37 01 02,,mairie.annexeouanary@orange.fr,21973314400014,-51.6709,4.2091,  Bourg d'Ouanary 97380 Ouanary,yes,,Mo-Fr 08:00-13:00,97314,eeec42e9-07b9-4682-8076-de30854a7bd2,node/6549196926
mairie,Mairie - Ouangani,,Mairie d'Ouangani,+262 2 69 62 15 30,https://ville-ouangani.yt/,accueil@mairiedeouangani.fr,20000885200010,45.1377572,-12.8485821,  Place Zakia-Madi 97670 Ouangani,yes,,"Mo-Th 07:30-12:00,13:00-16:00; Fr 07:00-12:00",97614,4192bf78-adfb-4803-b7ca-0c7404d90763,node/9286348163
mairie,Mairie - Pamandzi,,Mairie de Pamandzi,+262 2 69 60 12 82,,mairie@mairie-pamandzi.fr,20000886000013,45.2768994,-12.799965,  Place de la Mairie 97615 Pamandzi,no,,"Mo-Th 07:30-12:00,13:30-16:30; Fr 07:30-11:30; Sa 08:00-12:00",97615,e5855e15-2768-4e5f-8511-99d77cb2c027,node/1871359411
mairie,Mairie - Pantin,,Mairie de Pantin,+33 1 49 15 40 00,https://www.pantin.fr,,21930055500014,2.40348005295,48.896900177,  84-88 avenue du Général-Leclerc 93500 Pantin,yes,plain-pied,"Mo-We 08:30-12:30,13:30-17:30; Th 13:30-17:30; Fr 08:30-12:30,13:30-17:30; Sa 08:30-12:30",93055,2a662b1e-9b3c-4f5e-be36-f11e99da3244,way/73112225
mairie,Mairie - Papaïchton,,Mairie de Papaïchton,+594 5 94 37 30 00,,mairie@papaichton.fr,21973362300017,-54.1495,3.807,Place du Fromager  Le Bourg 97316 Papaïchton,yes,,Mo-Fr 07:00-14:00,97362,2ca3147d-1106-4268-8b71-f0a84750d9b4,way/437443754
mairie,Mairie - Petit-Bourg,,Mairie de Petit-Bourg,+590 5 90 95 38 00,https://www.ville-petitbourg.fr,contact.ville@ville-petitbourg.fr,21971118100012,-61.5930193,16.1937242,  Rue Schoelcher 97170 Petit-Bourg,yes,,"Mo-Tu 07:30-13:00,14:00-16:30; We 07:30-13:00; Th 07:30-13:00,14:00-16:30; Fr 07:30-13:00",97118,bdc40f3f-5af7-45a1-890e-6f0e1bb2ef79,way/128577868
mairie,Mairie - Petit-Canal,,Mairie de Petit-Canal,+590 5 90 22 62 04,http://petit-canal.fr/,mairie@villepetitcanal.fr,21971119900014,-61.4572781,16.3331075,  17 rue de l'Église 97131 Petit-Canal,yes,,"Mo-Tu 07:30-12:30,14:00-17:30; We 07:30-12:30; Th 07:30-12:30,14:00-17:30; Fr 07:30-13:00",97119,9a28f33c-5793-4cac-a847-11bf52ad1d6c,way/41275312
mairie,Mairie - Petite-Île,,Mairie de Petite-Île,+262 2 62 56 79 79,http://www.petite-ile.re,mairie@petite-ile.re,21974005700019,55.565721,-21.356638,  192 rue Mahé-de-Labourdonnais 97429 Petite-Île,yes,,Mo-Th 07:30-16:00; Fr 07:30-15:00,97405,35ead2b2-8e12-4d88-896d-ab3416a08c34,node/2627145973
mairie,Mairie - Pierrefitte-sur-Seine,,Mairie de Pierrefitte-sur-Seine,+33 1 72 09 33 80,http://www.mairie-pierrefitte93.fr,,21930059700016,2.3601991,48.9638251,  2 place de la Libération 93380 Pierrefitte-sur-Seine,yes,ascenseur,"Th 13:30-17:15; Fr 08:30-11:45,13:30-17:15; Sa 08:30-11:45; Mo-We 08:30-11:45,13:30-17:15",93059,f2532de6-6c81-495c-b67c-d629248c0a97,way/81179852
mairie,Mairie - Pointe-Noire,,Mairie de Pointe-Noire,+590 5 90 98 01 04,https://www.villepointenoire.fr/,contact@villepointenoire.fr,21971121500018,-61.7869369,16.2301682,  383 place de la Liberté 97116 Pointe-Noire,yes,,"Mo-Tu 07:30-12:30,14:00-17:00; We 07:30-13:00; Th 07:30-12:30,14:00-17:00; Fr 07:30-13:00",97121,c79eb9b1-b512-466e-83bc-e85d7b132dd8,way/41847321
mairie,Mairie - Pointe-à-Pitre,,Mairie de Pointe-à-Pitre,+590 5 90 93 85 85,https://www.pointeapitre.fr,etatcivil@ville-pointeapitre.fr,21971120700015,-61.5331,16.2411,  Place des Martyrs-de-la-Liberté 97120 Pointe-à-Pitre,yes,,Mo-Fr 07:30-14:30,97120,bf13de66-831c-479e-9a13-0edb9fef430b,way/65840887
mairie,Mairie - Port-Louis,,Mairie de Port-Louis,+590 5 90 22 44 00,http://www.mairie-portlouis.fr,mairie@commune-portlouis.fr,21971122300012,-61.5308297,16.4166353,  9 rue Gambetta 97117 Port-Louis,no,,"Mo-Tu 08:00-13:00,14:00-17:00; We 07:30-13:00; Th 08:00-13:00,14:00-17:00; Fr 07:30-13:00",97122,953704ee-d3b3-4ece-858f-38eaaa19e9d4,way/364246417
mairie,Mairie - Remire-Montjoly,,Mairie de Remire-Montjoly,+594 5 94 35 90 00,http://www.remire-montjoly.fr/,,21973309400136,-52.2767,4.905,  Avenue Jean-Marie-Michotte 97354 Remire-Montjoly,yes,,Mo 08:15-13:45; Tu 08:15-16:15; We 08:15-13:45; Th 08:15-16:15; Fr 08:15-13:45,97309,8d1c1e8e-baca-4863-9d8c-820c110db4a8,relation/2724079
mairie,Mairie - Rivière-Pilote,,Mairie de Rivière-Pilote,+596 5 96 62 60 03,,secretariat@mairie-riviere-pilote.fr,21972220400019,-60.90337711283656,14.486790091644293,  Avenue des Insurrections-Anti-Esclavagistes 97211 Rivière-Pilote,yes,,Mo 07:30-17:00; Tu-We 07:30-13:00; Th 07:30-17:00; Fr 07:30-13:00,97220,58b4e4b6-1006-4959-ad82-2fecee12168d,way/182353162
mairie,Mairie - Rivière-Salée,,Mairie de Rivière-Salée,+596 5 96 68 01 90,https://riviere-salee.fr,secretariat@mairie-riviere-salee.fr,21972221200012,-60.58293,14.31267,Quartier Laugier  Rue du Morne Costet 97215 Rivière-Salée,yes,,"Mo 07:00-13:00,14:30-17:00; Tu-We 07:00-13:00; Th 07:00-13:00,14:30-17:00; Fr 07:00-13:00",97221,e2e8a478-c242-4944-bda6-4c17fd9e01b5,node/5741138815
mairie,Mairie - Rosny-sous-Bois,,Mairie de Rosny-sous-Bois,+33 1 49 35 37 00,https://www.rosnysousbois.fr,contact@rosnysousbois.fr,21930064700019,2.488287,48.872207,  20 rue Claude-Pernès 93111 Rosny-sous-Bois Cedex,yes,rampe,"Mo-Fr 08:30-12:30,13:30-17:30; Sa 08:30-12:00",93064,983bfc92-d1b8-44a5-b05a-72861f7de492,way/144163463
mairie,Mairie - Roura,,Mairie de Roura,+594 5 94 28 00 00,http://www.roura.gf,cabinet.maire@roura.gf,21973310200012,-52.369651,4.7858709,  Rue Georges-Édmé-Labrador 97311 Roura,yes,,"Mo 08:00-13:15,14:15-17:00; Tu-We 08:00-14:15; Th 08:00-13:15,14:15-17:00; Fr 08:00-14:15",97310,afb87384-076c-4cbf-ad2b-cfcbfd3b8845,way/262406945
mairie,Mairie - Régina,,Mairie de Régina,+594 5 94 28 05 89,,secretariat.mairie@mairie-regina.fr,21973301100015,-52.134179,4.3096782,  Rue Gaston-Monnerville 97390 Régina,yes,,Mo-Fr 08:00-13:00,97301,a1cab6a4-e20d-452d-9954-79cf5bccfc16,node/1162465237
mairie,Mairie - Sada,,Mairie de Sada,+262 2 69 62 08 08,,contact@mairiedesada.fr,20000887800015,45.1004434,-12.8506722,Hôtel de ville   97640 Sada,yes,,"Mo-Th 07:00-12:00,13:00-16:00; Fr 07:00-11:30",97616,146ef312-62cf-46a4-af11-dd1502c77a7a,node/7977340475
mairie,Mairie - Saint-André,,Mairie de Saint-André,+262 2 62 58 88 88,http://www.saint-andre.re,communication@saint-andre.re,21974009900011,55.647266,-20.963728,  Place du 2 Décembre 97440 Saint-André,yes,,Mo-Th 08:00-16:00; Fr 08:00-15:30,97409,13b13e78-89c5-4aea-b2d6-39e25814f757,node/7882992240
mairie,Mairie - Saint-Benoît,,Mairie de Saint-Benoît,+262 2 62 50 88 00,https://www.saint-benoit.re/,communication@ville-saintbenoit.re,21974010700012,55.712995,-21.033559,  21 bis rue Georges-Pompidou 97470 Saint-Benoît,yes,par le côté droit du bâtiment,Mo-Th 08:00-16:00; Fr 08:00-11:45,97410,8533052f-2cdf-4c79-892a-4da09281d56d,way/104756327
mairie,Mairie - Saint-Claude,,Mairie de Saint-Claude,+590 5 90 80 00 16,http://www.ville-saintclaude.fr,cabinet.stclaude@wanadoo.fr,21971124900017,-61.701862,16.026688,  Rue du Maréchal-Foch 97120 Saint-Claude,yes,,"Mo-Tu 07:30-12:00,13:30-17:00; We 07:30-13:00; Th 07:30-12:00,13:30-17:00; Fr 07:30-13:00",97124,91f66466-d905-4608-81f6-c6468f836e73,way/131454317
mairie,Mairie - Saint-Denis-de-La-Réunion,,Mairie de Saint-Denis-de-La-Réunion,+262 2 62 40 04 04,https://www.saintdenis.re/,,21974011500015,55.448634,-20.878974,  2 rue de Paris 97717 Saint-Denis Cedex 9,yes,,Mo-Th 08:00-16:00; Fr 08:00-12:00,97411,bb9adb76-44e7-4ec6-b3c1-9c7134723f3f,way/146953781
mairie,Mairie - Saint-Esprit,,Mairie de Saint-Esprit,+596 5 96 56 61 02,http://villedusaintesprit.fr,secretariat@mairie-saint-esprit.fr,21972223800017,-60.9355544,14.5602851,  Rue Schoelcher 97270 Saint-Esprit,yes,,"Mo 07:30-13:30,14:30-17:00; Tu-We 07:30-13:30; Th 07:30-13:30,14:30-17:00; Fr 07:30-13:30",97223,6a222ee2-5751-4768-92bd-7a17977a9ad4,way/181289043
mairie,Mairie - Saint-François,,Mairie de Saint-François,+590 5 90 85 58 10,https://www.facebook.com/CommuneSaintFrancois,mairie-saint-francois-guadeloupe@wanadoo.fr,21971125600012,-61.2832832336426,16.2496572980523,  Place de l'Église 97118 Saint-Francois,no,,"Mo-Tu 08:00-12:00,14:00-17:00; We 08:00-13:00; Th 08:00-12:00; Fr 08:00-13:00",97125,39396f1b-ceb7-47f5-ad95-dee8624a2e18,way/125023318
mairie,Mairie - Saint-Georges,,Mairie de Saint-Georges,+594 5 94 37 00 44,,secretariat@mairie-sgo.fr,21973308600017,-51.801378,3.888718,  Place Romain-Garros 97313 Saint-Georges,no,,Mo-Fr 07:30-14:30,97308,c58aa55e-fc1c-47ee-87b7-7eec9d590c8b,node/1162885084
mairie,Mairie - Saint-Joseph,,Mairie de Saint-Joseph,+596 5 96 57 60 06,https://saintjoseph972.com,courrier@stjoseph972.fr,21972224600010,-61.0225296021,14.6727360108,  8 rue de la République 97212 Saint-Joseph,yes,,"Mo 07:30-13:00,14:30-17:30; Tu-We 07:30-13:30; Th 07:30-13:00,14:30-17:30; Fr 07:30-13:30",97224,535f7b76-2e19-49f0-8988-a56a463dbea3,way/178377851
mairie,Mairie - Saint-Joseph (La Réunion),,Mairie de Saint-Joseph (La Réunion),+262 2 62 35 80 00,http://www.saintjoseph.re,accueil@saintjoseph.re,21974012300019,55.612766,-21.380357,  277 rue Raphaël-Babet 97480 Saint-Joseph,yes,"l'accueil est au rez-de-chaussée, pour les autres services un agent peut descendre","Mo-Fr 07:30-12:00,13:00-16:00",97412,a91d949d-2329-4516-9764-cf361ceead58,way/142353323
mairie,Mairie - Saint-Laurent-du-Maroni,,Mairie de Saint-Laurent-du-Maroni,+594 5 94 34 03 00,https://www.saintlaurentdumaroni.fr/,communication@saintlaurentdumaroni.fr,21973311000015,-54.030833,5.495556,  5 avenue du Colonel-Chandon 97320 Saint-Laurent-du-Maroni,no,,"Mo 07:30-13:30,14:00-16:00; Tu 07:30-14:30; Th 07:30-13:30,14:00-16:00; Fr 07:30-13:15",97311,e39b8407-9499-4f54-8953-866024b37723,way/287024494
mairie,Mairie - Saint-Leu,,Mairie de Saint-Leu,+262 2 62 34 80 03,https://www.saintleu.re/,secretariat@mairie-saintleu.fr,21974013100012,55.286887,-21.166223,  58 rue du Général-Lambert 97436 Saint-Leu Cedex,yes,,Mo-Th 08:00-16:00; Fr 08:00-15:00,97413,04ef57f5-87ab-4096-8331-233dde880eae,way/143366750
mairie,Mairie - Saint-Louis-de-Marie-Galante,,Mairie de Saint-Louis-de-Marie-Galante,+590 5 90 97 04 61,https://paysmariegalante.fr/saint-louis.html,mairie.st-louis@wanadoo.fr,21971126400016,-61.3180875778198,15.9541083025487,  Avenue des Caraïbes 97134 Saint-Louis,yes,,"Mo-Tu 08:00-12:30,14:00-17:30; We 08:00-13:30; Th 08:00-12:30,14:00-17:30; Fr 08:00-13:30",97126,4887d1b1-b217-4dfe-b468-6510b3b8ba2d,way/65029999
mairie,Mairie - Saint-Ouen,,Mairie de Saint-Ouen,+33 1 49 45 67 89,https://www.saint-ouen.fr/,service-courrier@mairie-saint-ouen.fr,21930070400018,2.333008,48.91253,  7 place de la République 93406 Saint-Ouen Cedex,yes,accès de plain-pied à l’arrière du bâtiment,"Mo-We 08:30-12:30,13:30-18:00; Th 13:30-18:00; Fr 08:30-12:30,13:30-18:00; Sa 08:30-12:00",93070,2f395573-a0b7-44c7-a5ea-42e8cc3fab99,way/73842043
mairie,Mairie - Saint-Paul,,Mairie de Saint-Paul,+262 2 62 45 43 45,http://www.mairie-saintpaul.fr,maire@mairie-saintpaul.fr,21974015600019,55.269527,-21.014047,  Place du Général-de-Gaulle 97864 Saint-Paul Cedex,yes,,Mo-Th 08:00-16:00; Fr 08:00-15:00,97415,0cb9fc42-9d72-4d9b-8faf-02ad5742cf29,node/4435765589
mairie,Mairie - Saint-Philippe,,Mairie de Saint-Philippe,+262 2 62 37 00 12,http://www.saintphilippe.re,com_phil@yahoo.fr,21974017200016,55.764656,-21.358118,  64 rue Leconte-Delisle 97442 Saint-Philippe,yes,,Mo-Th 07:30-16:30; Fr 07:30-13:00,97417,8af862b9-39ef-4e3a-8a08-7e8a8735356e,way/84813986
mairie,Mairie - Saint-Pierre,,Mairie de Saint-Pierre,+596 5 96 78 10 32,http://www.saintpierre-mq.fr,contact@saintpierre-mq.fr,21972225300016,-61.1753017,14.743837,  35 rue Caylus 97250 Saint-Pierre,yes,,Mo 07:00-17:00; Tu-We 07:00-13:00; Th 07:00-17:00; Fr 07:00-13:00,97225,4fe1e1ce-e1aa-42e2-b01d-057541e8eb24,way/119899287
mairie,Mairie - Sainte-Anne,,Mairie de Sainte-Anne,+590 5 90 85 48 60,https://www.ville-sainteanne.fr/,cabinet.mairesainteanne@gmail.com,21971128000012,-61.3874816894531,16.2246467362507,  Place Schœlcher 97180 Sainte-Anne,yes,,Mo-Fr 07:45-13:00,97128,389adc13-7c67-4282-9819-33fb4533b7a0,way/124917794
mairie,Mairie - Sainte-Anne,,Mairie de Sainte-Anne,+596 5 96 76 73 06,http://www.sainte-anne972.fr,,21972226100019,-60.8813206,14.4353196,  1 place Abbé-Morland 97227 Sainte-Anne,yes,,"Mo 07:30-13:30,15:00-17:30; Tu-We 07:30-13:30; Th 07:30-13:30,15:00-17:30; Fr 07:30-13:30",97226,04b7d5c8-f0b3-4c93-97e8-8fca136990eb,way/84847880
mairie,Mairie - Sainte-Luce,,Mairie de Sainte-Luce,+596 5 96 62 50 01,https://www.sainteluce.fr/accueil.php,bienvenue@mairie-sainte-luce.fr,21972227900011,-60.92152458043963,14.468382089704395,  61 rue Schoelcher 97228 Sainte-Luce,yes,,"Mo 07:30-13:15,14:30-17:15; Tu-We 07:30-13:30; Th 07:30-13:15,14:30-17:15; Fr 07:30-13:30",97227,be063e2e-bd55-4306-9b9c-75b6b6ca3c53,way/181164271
mairie,Mairie - Sainte-Marie,,Mairie de Sainte-Marie,+596 5 96 69 30 06,http://www.ville-saintemarie.fr,secretariat.cabinet.vsm@gmail.com,21972228700014,-60.993412,14.781457,  1 place de l'Hôtel-de-Ville 97230 Sainte-Marie,yes,,Mo-Tu 07:00-17:00; We 07:00-13:00; Th 07:00-17:00; Fr 07:00-13:00,97228,9cf82664-42cb-4757-81c7-29bee8b15293,way/42497243
mairie,Mairie - Sainte-Marie,,Mairie de Sainte-Marie,+262 2 62 53 41 15,https://www.ville-saintemarie.re/,infomairie@ville-saintemarie.re,21974018000019,55.549342,-20.896986,  3 rue de la République 97438 Sainte-Marie,yes,,Mo-Th 08:00-16:00; Fr 08:00-15:00,97418,cf4f0841-c2d6-4934-8266-53f02663128a,node/5491382740
mairie,Mairie - Sainte-Rose,,Mairie de Sainte-Rose,+262 2 62 47 20 22,http://www.sainterose.re,,21974019800011,55.7772735,-21.1250128,  193 route nationale 2 97439 Sainte-Rose,yes,,"Mo-Th 07:30-12:00,13:00-16:00; Fr 07:30-12:30",97419,f8954abe-e5e9-461b-a2ed-3b35598a5de6,way/85024020
mairie,Mairie - Sainte-Rose,,Mairie de Sainte-Rose,+590 5 90 28 08 08,,cabinet@villesainterose.fr,21971129800154,-61.6991651058197,16.3341628305146,  Avenue Sainte-Rose-de-Lima 97115 Sainte-Rose,yes,,"Mo-Tu 08:00-12:30,14:00-17:30; We 08:00-13:00; Th 08:00-12:30,14:00-17:30; Fr 08:00-13:00",97129,915484b3-0a8b-422f-9bc5-32cf1977a061,way/125251133
mairie,Mairie - Sainte-Suzanne,,Mairie de Sainte-Suzanne,+262 2 62 52 30 02,http://www.ville-saintesuzanne.re,,21974020600012,55.601875,-20.914287,  3 rue du Général-de-Gaulle 97441 Sainte-Suzanne,yes,,Fr 08:00-12:00; Mo-Th 08:00-16:00,97420,28751332-1c28-4853-8d8c-4e8dbb5f4d77,way/95377828
mairie,Mairie - Salazie,,Mairie de Salazie,+262 2 62 47 58 00,http://www.ville-salazie.fr,infos@ville-salazie.fr,21974021400016,55.5394745,-21.0272086,  1 place Théodore-Simonette 97433 Salazie,yes,,Mo-Th 08:00-16:00; Fr 08:00-12:00,97421,f1ea3b22-3c26-4ed5-b2e6-22fa11dfe291,way/67036470
mairie,Mairie - Saül,,Mairie de Saül,+594 5 94 28 86 13,,mairie.saul@orange.fr,21973352400017,-53.2,3.616667,  Bourg de Saül 97314 Saül,no,,"Mo 08:00-13:30,15:00-18:00; Tu-We 08:00-14:00; Th 08:00-13:30,15:00-18:00; Fr 08:00-14:00",97352,9b27d11a-73cb-443a-a3aa-4b88e99a1409,way/288663427
mairie,Mairie - Schœlcher,,Mairie de Schœlcher,+596 5 96 72 72 72,http://www.mairie-schoelcher.fr,,21972229500017,-61.101317,14.616066,  3 rue Fessenheim 97233 Schœlcher,yes,,"Mo 07:30-13:00,14:00-17:00; Tu-We 07:30-14:00; Th 07:30-13:00,14:00-17:00; Fr 07:30-14:00",97229,c20cacec-6aca-4ed6-8881-0617b9b3e946,way/137745391
mairie,Mairie - Sevran,,Mairie de Sevran,+33 1 49 36 52 00,https://www.ville-sevran.fr/,site_internet@ville-sevran.fr,21930071200524,2.52668,48.93997,  28 avenue du Général-Leclerc 93270 Sevran,yes,plain-pied,"Tu-Th 08:30-12:00,13:00-17:30; Fr 08:30-12:00,13:00-18:00; Sa 08:30-12:00",93071,8a832842-5f13-47a8-9877-7b5aa10cfd0a,way/904251395
mairie,Mairie - Sinnamary,,Mairie de Sinnamary,+594 5 94 34 51 22,http://www.ville-sinnamary.fr,secretariat.general@ville-sinnamary.fr,21973312800017,-52.951859,5.372225,  1 avenue Elie-Castor 97315 Sinnamary,yes,,Mo-Fr 07:30-14:30,97312,a5c60663-e196-47c3-9825-22a130f55069,node/1148070772
mairie,Mairie - Stains,,Mairie de Stains,+33 1 49 71 82 27,http://www.stains.frindex.php,contact@stains.fr,21930072000014,2.38270998001,48.9547805786,  6 avenue Paul-Vaillant-Couturier 93240 Stains,yes,rampe,"Mo 08:45-12:15,13:30-17:15; Tu 13:30-17:15; We-Fr 08:45-12:15,13:30-17:15; Sa 08:45-11:45",93072,cc345e8e-4162-4e4a-920d-516f1312858b,way/77631184
mairie,Mairie - Terre-de-Bas,,Mairie de Terre-de-Bas,+590 5 90 99 85 78,,mairie.de.terre.de.bas@wanadoo.fr,21971130600015,-61.6362736,15.8552127,  Place du 9-Août-1882 97136 Terre-de-Bas,yes,,"Mo-Tu 07:30-12:30,14:00-17:30; We 08:00-13:00; Th 07:30-12:30,14:00-17:30; Fr 08:00-12:30; Sa 09:00-11:00",97130,86341619-7047-425d-8f5b-bb72ac8f226c,way/41559737
mairie,Mairie - Terre-de-Haut,,Mairie de Terre-de-Haut,+590 5 90 99 53 12,https://www.mairiedeterredehaut.fr,informations@mairiedeterredehaut.fr,21971131400019,-61.5827316,15.8668965,  2 place Hazier-du-Buisson 97137 Terre-de-Haut,yes,,Mo-Tu 07:30-12:00; We 07:30-12:30; Th-Fr 07:30-12:00,97131,d62e5ed7-d10b-4c3b-96ff-eb6f90b6bdec,way/42101786
mairie,Mairie - Tremblay-en-France,,Mairie de Tremblay-en-France,+33 1 49 63 71 35,https://www.tremblay-en-france.fr,,21930073800016,2.570835,48.951693,  18 boulevard de l'Hôtel-de-Ville 93290 Tremblay-en-France,yes,,"Mo-Fr 08:30-12:00,13:00-17:00; Sa 08:30-12:00",93073,47fcac5d-5895-4fbf-b5e0-f3b258405544,node/577554364
mairie,Mairie - Trois-Rivières,,Mairie de Trois-Rivières,+590 5 90 92 90 05,https://villetroisrivieres.fr/,mairie@villetroisrivieres.fr,21971132200012,-61.6526985168457,15.9752335056885,  Place du Capitaine-Moïse-Bébel 97114 Trois-Rivières,yes,ascenseur,"Mo-Tu 07:30-12:30,14:00-17:00; We 07:30-13:00; Th 07:30-12:30,14:00-17:00; Fr 07:30-13:00",97132,e58e444b-d778-4a4f-bd9b-ee1a7c12022b,way/287725731
mairie,Mairie - Tsingoni,,Mairie de Tsingoni,+262 2 69 62 17 91,https://mairie-tsingoni.fr/,mairie-de-tsingoni@orange.fr,20000888600018,45.1420417,-12.880664,  Place Zoubert-Adinani 97680 Tsingoni,yes,,"Mo-Th 07:15-11:45,12:45-16:00; Fr 07:15-11:15",97617,048c7342-6d9c-4693-9c0a-ca0edeb991b3,node/8642938117
mairie,Mairie - Vaujours,,Mairie de Vaujours,+33 1 48 61 96 75,http://www.vaujours.fr,contact@ville-vaujours.fr,21930074600019,2.5674406,48.9323323,  20 rue Alexandre-Boucher 93410 Vaujours,yes,,"Mo-Fr 08:30-12:00,13:30-17:30",93074,1e569494-dfe5-4e5c-85e8-c97aa39000b3,node/3949829263
mairie,Mairie - Vieux-Fort,,Mairie de Vieux-Fort,+590 5 90 92 00 00,,mairie@ville-vieux-fort.fr,21971133000015,-61.6998624801636,15.9497757102357,176 Rue Sylvain-Janoê  Place Marie-Eusèbe 97141 Vieux-Fort,yes,,"Mo-Tu 07:30-12:30,14:00-17:00; We 07:30-13:00; Th 07:30-12:30,14:00-17:00; Fr 07:30-13:00",97133,ec4fe9f1-a04c-4a36-beb3-bf4dc08a191b,way/41380356
mairie,Mairie - Vieux-Habitants,,Mairie de Vieux-Habitants,+590 5 90 98 42 02,,secret.vieuxhabitants@orange.fr,21971134800017,-61.756751,16.054968,  Boulevard des Habissois-Souverains 97119 Vieux-Habitants,yes,,"Mo-Tu 08:00-13:00,14:30-17:30; We 08:00-13:30; Th 08:00-13:00,14:30-17:30; Fr 08:00-13:30",97134,2d920570-72e8-453d-8118-6ba41b1f5103,way/41885067
mairie,Mairie - Villemaréchal,,Mairie de Villemaréchal,+33 1 64 31 52 65,http://www.villemarechal.fr,commune.villemarechal@orange.fr,20008647800019,2.87409996986,48.2678985596,  8 rue de la Mairie 77710 Villemaréchal,yes,plain-pied,Mo 17:00-18:30; We 09:30-12:00; Fr 17:30-19:00; Sa 09:00-11:30,77504,42900dc5-9a2f-4f1a-909e-1598121c0742 ,node/4798915909
mairie,Mairie déléguée - Saint-Ange-le-Vieil,,Mairie déléguée de Saint-Ange-le-Vieil,+33 1 60 96 59 54,http://www.villemarechal.fr,saint.ange77@wanadoo.fr,20008647800019,2.9023399353,48.2667999268,Saint-Ange-le-Vieil  2 rue de la Mairie 77710 Villemaréchal,yes,plain-pied,Tu 17:00-19:00,77504,7b29b528-ef41-4078-8472-0bf9ff3c6912 ,node/3243929081
mairie,Mairie - Villemomble,,Mairie de Villemomble,+33 1 49 35 25 25,http://www.villemomble.fr,secretariat-general@mairie-villemomble.fr,21930077900200,2.50716996193,48.882598877,  13 bis rue d'Avron 93250 Villemomble,yes,ascenseur,Th 13:30-17:00; Mo-Tu 08:30-17:00; We 08:30-20:00; Fr 08:30-17:00,93077,079084a1-fc40-4c65-916a-cfa1c9d09558,way/144282767
mairie,Mairie - Villetaneuse,,Mairie de Villetaneuse,+33 1 85 57 39 00,http://www.mairie-villetaneuse.fr,communication@mairie-villetaneuse.fr,21930079500123,2.343861,48.961176,  1 place de l'Hôtel-de-Ville 93430 Villetaneuse,yes,,"Sa 09:00-12:00; Mo-We 08:30-12:00,13:30-17:00; Th 13:30-17:00; Fr 08:30-12:00,13:30-17:00",93079,1211d23e-dbbb-4ef3-b8cb-06b9c71c88c2,way/81144452
mairie,Mairie - Épinay-sur-Seine,,Mairie d'Épinay-sur-Seine,+33 1 49 71 99 99,https://www.epinay-sur-seine.fr/,contact@epinay-sur-seine.fr,21930031600011,2.314907,48.951627,  1-3 rue Quétigny 93806 Épinay-sur-Seine Cedex,yes,monte-personne,"Mo-We 08:30-12:00,13:15-17:30; Th 08:30-12:00,13:15-19:00; Fr 08:30-12:00,13:15-17:30; Sa 09:00-12:00",93031,551d420f-e8ac-44eb-9c60-b08e39c271c5,way/70172300
