categorie,official_name,branch,name,contact:phone,contact:website,contact:email,ref:FR:SIRET,longitude,latitude,address_txt,wheelchair,wheelchair:description,opening_hours,insee,id,osm_id
mairie,Mairie - Achères-la-Forêt,,Mairie d'Achères-la-Forêt,+33 1 64 24 40 11,https://www.achereslaforet.com/,acheres.la.foret@orange.fr,21770001200016,2.56274008751,48.3404006958,  58 rue du Closeau 77760 Achères-la-Forêt,yes,,Mo-Tu 08:30-12:00; Fr-Sa 08:30-12:00,77001,9c18fa54-3f3c-4344-9edc-200e2d71ef0a,node/4758032221
mairie,Mairie - Acoua,,Mairie d'Acoua,+262 2 69 62 18 81,,mairie.acoua@orange.fr,20000871200016,45.058284,-12.724469,  Place de la Mairie 97630 Acoua,yes,,"Mo-Th 07:00-12:00,13:00-16:00; Fr 07:00-11:30",97601,0e140e49-c437-465e-b369-3ad4f97cf599,node/6565538985
mairie,Mairie - Amillis,,Mairie d'Amillis,+33 1 64 04 60 26,,mairieamillis@orange.fr,21770002000019,3.128554,48.740699,  Rue Georges-Renard 77120 Amillis,yes,"rampe, rez-de-chaussée",Mo 09:00-12:00; Tu 09:00-16:30; Th 09:00-16:00; Fr 09:00-12:00,77002,5001dc7a-ff4f-4ddd-813a-466c28423eec,node/4530951134
mairie,Mairie - Amponville,,Mairie d'Amponville,+33 1 64 24 31 55,,mairie.amponville@wanadoo.fr,21770003800011,2.52869009972,48.2789001465,  15 rue Grande 77760 Amponville,no,,Mo 16:00-18:30; Th 16:30-18:30; Sa 10:30-12:00,77003,adc4cfb3-e4ac-481f-8515-68a027a93fcd,node/4798913784
mairie,Mairie - Andrezel,,Mairie d'Andrezel,+33 1 64 06 11 21,,mairie.andrezel@wanadoo.fr,21770004600014,2.8135008812,48.6116065979,  28 rue Martin-IV 77390 Andrezel,yes,rampe par l'arrière du bâtiment,Mo 13:30-16:30; We 17:00-19:00; Th 13:30-16:30; Sa 10:00-12:00,77004,834808f7-0cc5-4aa2-9efc-fd6c7dfdcda1,way/198857216
mairie,Mairie - Annet-sur-Marne,,Mairie d'Annet-sur-Marne,+33 1 60 26 02 79,http://www.annetsurmarne.com,maire@annetsurmarne.fr,21770005300010,2.722219944,48.925201416,  38 rue Paul-Valentin 77410 Annet-sur-Marne,yes,rampe,"Mo-Fr 08:30-12:00,13:30-17:30; Sa 08:30-12:00",77005,bf13e150-365a-44a1-b5f5-b39ea360c316,node/4798915912
mairie,Mairie - Anse-Bertrand,,Mairie d'Anse-Bertrand,+590 5 90 89 48 48,https://www.ansebertrand.fr/,commune@mairieansebertrand.fr,21971102500011,-61.5161584,16.4709755,  Le Bourg 97121 Anse-Bertrand,no,,"Mo-Tu 08:00-13:00,14:30-17:30; We 08:00-13:30; Th 08:00-13:00,14:30-17:30; Fr 08:00-13:30",97102,29efd88b-eaac-43b6-aad2-49a4b7811c80,way/44366455
mairie,Mairie - Apatou,,Mairie d'Apatou,+594 5 94 34 91 37,,mairie.apatou@wanadoo.fr,21973360700010,-54.343792,5.155913,  23 avenue du Général-de-Gaulle 97317 Apatou,yes,,Mo-Fr 07:30-14:30,97360,738bf0fc-a3a8-4cca-b27e-3449a9a262a9,way/288987623
mairie,Mairie - Arbonne-la-Forêt,,Mairie d'Arbonne-la-Forêt,+33 1 60 66 44 16,http://www.arbonnelaforet.fr,mairie.arbonnelaforet@wanadoo.fr,21770006100013,2.56537008286,48.414100647,  58 rue de la Mairie 77630 Arbonne-la-Forêt,yes,,"Mo 09:00-12:00,14:00-16:30; We 14:00-16:30; Th-Fr 09:00-12:00; Sa 10:00-12:00",77006,9b65803b-4bcc-4e75-8b5e-ac0b45716df7,way/113234280
mairie,Mairie - Argentières,,Mairie d'Argentières,+33 1 64 06 01 30,http://www.argentieres77.wordpress.com,mairie-argentieres77@wanadoo.fr,21770007900015,2.86980009079,48.6547012329,  Place de l'Église 77390 Argentières,yes,,"Tu-We 09:00-12:00; Th 09:00-12:00,13:30-17:30; Fr 13:30-17:30",77007,4aca9232-ec73-4db2-8adf-c67fb26faf2c,node/4798916925
mairie,Mairie - Armentières-en-Brie,,Mairie d'Armentières-en-Brie,+33 1 64 35 51 99,https://armentieres-en-brie.fr/,mairie.armentieresenbrie@orange.fr,21770008700018,3.02154994011,48.9776992798,  9 rue du Chef-de-Ville 77440 Armentières-en-Brie,yes,,"Mo-Tu 09:00-12:00,16:30-18:30; We 09:00-12:00; Th-Fr 09:00-12:00,16:30-18:30",77008,88f0cd29-0b15-45fd-b698-9c58a23f2a7a,node/4798915882
mairie,Mairie - Arville,,Mairie d'Arville,+33 1 64 28 71 61,,arville.mairie@wanadoo.fr,21770009500011,2.5483978,48.1882185,  5 rue de l'École 77890 Arville,yes,rampe,Mo 09:00-18:00; Tu 13:30-17:00; Th 09:00-18:00,77009,c80b3cae-1bcd-4fab-b8c4-af30e5ff9db6,node/3878136792
mairie,Mairie - Aubepierre-Ozouer-le-Repos,,Mairie d'Aubepierre-Ozouer-le-Repos,+33 1 64 06 92 95,http://www.aubepierre-ozouer-le-repos.org,mairie-aubepierre-ozouer@wanadoo.fr,21770010300013,2.8883129,48.6319706,  15 rue de Paradis 77720 Aubepierre-Ozouer-le-Repos,yes,,Mo 09:00-12:00; Tu 13:30-17:30; We 09:00-12:00; Fr 13:30-17:30; Sa 09:00-12:00,77010,cc0c76dd-24e2-4b31-ab38-e34ff9a19647,node/4798913798
mairie,Mairie - Aubervilliers,,Mairie d'Aubervilliers,+33 1 48 39 52 00,https://www.aubervilliers.fr/,,21930001900011,2.3817895,48.91461,  2 rue de la Commune-de-Paris 93300 Aubervilliers,yes,ascenseur,Mo-Fr 08:30-17:00; Sa 08:30-12:00,93001,0706933e-c71d-409e-aa72-46db29fe49d3,relation/1131762
mairie,Mairie - Aufferville,,Mairie d'Aufferville,+33 1 64 28 70 04,http://www.aufferville.fr,mairie.aufferville@laposte.net,21770011100016,2.60887002945,48.2150993347,  33 rue Grande 77570 Aufferville,yes,rampe,"Mo 09:30-12:00; Tu 09:30-12:00,14:00-19:00; Th 09:30-12:00,14:00-16:30; Fr 09:30-12:00; Sa 10:00-12:00",77011,ef92c209-beb0-41f9-8e14-6bb5839cf608,node/4798913800
mairie,Mairie - Augers-en-Brie,,Mairie d'Augers-en-Brie,+33 1 64 01 93 17,,mairie-augers-en-brie@orange.fr,21770012900018,3.355917,48.67889,  1 rue de la Mairie 77560 Augers-en-Brie,yes,,Mo 17:00-19:00; Th 17:00-19:00,77012,1b8d4fb7-d5b8-4a4b-974c-f27cf186dde9,way/115290516
mairie,Mairie - Aulnoy,,Mairie d'Aulnoy,+33 1 64 03 19 69,https://www.aulnoy.fr/,mairie.aulnoy@orange.fr,21770013700011,3.095059,48.840484,  Place de la Mairie 77120 Aulnoy,no,,Tu 14:00-18:00; Th 08:45-11:30; Fr 14:00-18:00,77013,220b2ae6-3a9e-4407-8743-ada464ae4ceb,node/4798913812
mairie,Mairie - Avon,,Mairie d'Avon,+33 1 60 71 20 00,http://www.avon77.com,mairie@avon77.com,21770014500014,2.7208826,48.4049351,  8 rue Père-Maurice 77210 Avon,yes,plain-pied,"Mo-Fr 08:30-11:45,13:30-17:00; Sa 08:30-12:00",77014,81c13e21-1384-4792-999f-3571f5b59022,way/286908768
mairie,Mairie - Awala-Yalimapo,,Mairie d'Awala-Yalimapo,+594 5 94 34 76 76,,mairie@awala-yalimapo.fr,21973361500013,-53.932405,5.691046,2765 avenue du 31-Décembre-1988  Centre administratif 97319 Awala-Yalimapo,yes,,"Mo 08:00-14:30; Fr 08:00-14:00; Tu 08:00-13:00,14:00-17:30; We 08:00-14:30; Th 08:00-13:00,14:00-17:30",97361,74f7c925-e1cd-42d5-adba-9e5599e0c365,node/431261661
mairie,Mairie - Baby,,Mairie de Baby,+33 1 64 01 80 05,https://villagedebaby.fr,mairie@villagedebaby.fr,21770015200010,3.342543,48.395719,  3 rue de la Mairie 77480 Baby,yes,,We-Th 17:00-19:00,77015,ea1146e8-4464-4c46-b511-377729e20aeb,node/4798913793
mairie,Mairie - Bagneaux-sur-Loing,,Mairie de Bagneaux-sur-Loing,+33 1 64 78 51 90,http://www.bagneauxsurloing.fr,mairie@bagneauxsurloing.fr,21770016000013,2.70526003838,48.2307014465,  Place de l'Hôtel-de-Ville 77167 Bagneaux-sur-Loing,yes,plain-pied,"Mo-Tu 08:30-12:00,13:30-17:30; We 08:30-12:00,14:00-17:00; Th 08:30-12:00,13:30-17:30; Fr 08:30-12:00,14:00-16:30; Sa 10:00-12:00",77016,fe80cf5a-5e44-4003-b797-f49f4ce5f1ec,way/319347388
mairie,Mairie - Bagnolet,,Mairie de Bagnolet,+33 1 49 93 60 00,http://www.ville-bagnolet.fr,mairie@ville-bagnolet.fr,,2.416931,48.86876,  1 place Salvador-Allende 93171 Bagnolet Cedex,yes,,"Fr 13:30-17:00; Mo-Th 09:00-12:00,13:30-17:00; Sa 09:00-12:30",93006,b63ca7e7-8111-4f5d-b0d3-1c80b4f7ae64,relation/11750190
mairie,Mairie - Baie-Mahault,,Mairie de Baie-Mahault,+590 5 90 26 59 60,https://www.baiemahault.fr/,contact@baiemahault.fr,21971103300015,-61.5874352,16.2654712,Hôtel de Ville  Place Childéric Trinqueur 97122 Baie-Mahault,yes,,"Mo-Tu 08:00-14:00; We 08:00-12:30; Th 08:00-11:00,14:00-16:00; Fr 08:00-12:30",97103,dc71e8ca-b026-4369-9eee-f7a05ccb705b,way/178237246
mairie,Mairie - Baillif,,Mairie de Baillif,+590 5 90 99 11 70,https://ville-baillif.fr/,mairiedebaillif@ville-baillif.fr,21971104100018,-61.7414904,16.0301297,Rue des Anciennes Ecoles  Le Bourg 97123 Baillif,yes,,Mo-Fr 07:30-14:30,97104,7b620b63-86cf-4ff5-b396-6d18748c4f1b,way/41896036
mairie,Mairie - Bailly-Romainvilliers,,Mairie de Bailly-Romainvilliers,+33 1 60 43 02 51,http://www.bailly-romainvilliers.fr,contact@bailly-romainvilliers.fr,21770018600018,2.8247398,48.8471425,  51 rue de Paris 77700 Bailly-Romainvilliers,yes,rampe,"Mo 09:00-12:30,14:00-17:30; Tu 09:00-12:30,15:30-17:30; We-Fr 09:00-12:30,14:00-17:30; Sa 09:00-12:00",77018,b1d96da6-34df-400b-822a-b01cf0bf0a29,node/4798915887
mairie,Mairie - Balloy,,Mairie de Balloy,+33 1 60 67 13 27,,mairie.balloy@laposte.net,21770019400012,3.14663,48.398089,  Place de la Mairie 77118 Balloy,yes,rampe,"Mo 08:00-12:00,13:30-18:00; Tu 13:30-18:00; We 08:00-12:00; Th 13:30-18:00; Fr 18:00-19:00",77019,fda3bfcf-b30b-4c94-9dc0-f0ffa29f1df1,way/227536419
mairie,Mairie - Bandraboua,,Mairie de Bandraboua,+262 2 69 62 54 18,http://www.mairie-bandraboua.fr,secretariat.direction@mairie-bandraboua.fr,20000872000019,45.12184,-12.704211,  238  rue de l'Hôtel-de-Ville 97650 Bandraboua,yes,,"Mo-Th 07:00-12:00,13:00-16:00; Fr 07:00-11:30",97602,6dcba774-37ef-4378-bea5-b5d32a9b6866,node/8979785290
mairie,Mairie - Bandrélé (Mayotte),,Mairie de Bandrélé (Mayotte),+262 2 69 62 19 81,https://bandrele.yt/,maire@bandrele.yt,20000873800011,45.1933338,-12.9107288,  Route Nationale 3 97660 Bandrele,no,,"Mo-Th 07:00-12:00,13:00-15:45; Fr 07:00-11:00",97603,a7ff756e-4bd3-4126-8172-57140ee01026,node/6564540340
mairie,Mairie - Bannost-Villegagnon,,Mairie de Bannost-Villegagnon,+33 1 64 01 09 78,http://www.mairie-bannost-villegagnon77.com,mairie@bannost-villegagnon.fr,21770020200013,3.18998003006,48.6800003052,  2 rue de la Gare 77970 Bannost-Villegagnon,limited,l'agent territorial se déplace au rez-de-chaussée afin d'accueillir la personne à mobilité réduite qui s'annonce oralement dès son entrée dans les locaux,Mo 16:00-18:30; We 15:30-17:30; Th 09:30-11:30,77020,6b5b72ca-77de-4f70-8900-f79ca6cb24c8,node/4798913792
mairie,Mairie - Barbey,,Mairie de Barbey,+33 1 60 96 85 33,,mairiedebarbey@wanadoo.fr,21770021000016,3.057691,48.364966,  48 rue Grande 77130 Barbey,limited,téléphoner avant de se déplacer,Tu 16:30-18:30; Th 10:00-12:00,77021,1e636d54-f3c1-41dd-85f9-ed1af2ca8052,node/4798915867
mairie,Mairie - Barbizon,,Mairie de Barbizon,+33 1 60 66 41 92,http://www.barbizon.fr,mairie-village@barbizon.fr,21770022800018,2.61017990112,48.4435997009,  13 Grande rue 77630 Barbizon,yes,,Mo 14:00-18:00; Tu-Sa 09:00-12:00,77022,d50afb58-40ba-4454-8cfe-42d0abf9fd00,way/113288071
mairie,Mairie - Barcy,,Mairie de Barcy,+33 9 75 40 71 40,http://www.barcy77.fr,mairie-barcy@orange.fr,21770023600011,2.8814248,49.0174703,  7 ruelle du Curé 77910 Barcy,yes,,Mo 15:30-19:30; We 08:00-13:00; Th 15:30-19:30,77023,bc7b42be-ec6a-4d7a-a618-fabf16e8c3a4,node/3842874863
mairie,Mairie - Basse-Pointe,,Mairie de Basse-Pointe,+596 5 96 78 50 44,https://villedebassepointe.fr,contact@villedebassepointe.fr,21972203000018,-61.1203363,14.8687313,  22 rue du Docteur Hippolyte Morestin 97218 Basse-Pointe,yes,,"Mo-Tu 07:30-13:00,14:30-17:00; We 07:30-13:00; Th 07:30-13:00,14:30-17:00; Fr 07:30-13:00",97203,b7469735-36a1-405a-80c1-d6197f2d8cd9,way/178916464
mairie,Mairie - Basse-Terre,,Mairie de Basse-Terre,+590 5 90 80 56 56,https://www.ville-basseterre.fr/,contact@ville-basseterre.fr,21971105800012,-61.7322635650635,15.9971815501316, Hôtel-de-Ville Cours-Nolivos 97100 Basse-Terre,yes,,"Mo-Tu 07:30-12:00,13:30-17:00; We 07:30-12:30; Th 07:30-12:00,13:30-17:00; Fr 07:30-12:30",97105,597b1720-8653-4ef4-b838-4841be6e62f4,way/66440877
mairie,Mairie - Bassevelle,,Mairie de Bassevelle,+33 1 60 22 51 01,http://www.bassevelle.fr,mairiebassevelle@wanadoo.fr,21770024400015,3.28842711449,48.9271202087,  743 rue de la Mairie 77750 Bassevelle,yes,rampe,Mo 16:00-17:30; Th 16:00-18:00,77024,bf28b298-8653-4574-8b0a-2b7cb2050964,node/4798916224
mairie,Mairie - Bazoches-lès-Bray,,Mairie de Bazoches-lès-Bray,+33 1 60 67 14 36,http://www.mairie-bazoches-les-bray.fr,bazoches.mairie@outlook.fr,21770025100010,3.18806004524,48.3984985352,  4 place de l'Église 77118 Bazoches-lès-Bray,yes,rampe,Mo 14:00-18:00; Th 14:00-18:00; Fr 13:30-18:00,77025,a29a7925-47ef-4067-a238-4dde33496e13,node/4798915547
mairie,Mairie - Beauchery-Saint-Martin,,Mairie de Beauchery-Saint-Martin,+33 1 64 00 82 59,,mairie.beauchery@orange.fr,21770026900012,3.40341,48.615478,  2 rue de la Tour-Maurouard 77560 Beauchery-Saint-Martin,limited,il faut sonner une personne descend pour aider,Mo 11:00-14:00; Tu 17:00-19:00,77026,d9f90879-52f2-41d8-a9e0-534d09b68ad8,node/4798915893
mairie,Mairie - Beaumont-du-Gâtinais,,Mairie de Beaumont-du-Gâtinais,+33 1 64 29 90 33,http://www.beaumont-du-gatinais.fr,mairie.beaumont.du.gatinais@orange.fr,21770027700015,2.474809,48.13655,  1 rue Montgaudier 77890 Beaumont-du-Gâtinais,yes,,Mo 09:00-12:00,77027,a1990c6f-d1f1-4141-87a7-03ac3d3f8bdc,way/115180931
mairie,Mairie déléguée - Beautheil,,Mairie déléguée de Beautheil,+33 1 64 03 19 03,http://www.beautheil.fr,mairie@beautheil.fr,20008162800014,3.08678007126,48.7621002197,Beautheil  Rue de la Mairie 77120 Beautheil-Saints,yes,,"Tu 09:00-12:00,15:00-19:00; Th 09:00-12:00,15:00-19:00; Fr 09:00-12:00,15:00-19:00; Sa 10:00-12:00",77433,04ec2d67-66fb-4121-a26a-a4e0ad69fdeb ,node/1645394958
mairie,Mairie - Beautheil-Saints,,Mairie de Beautheil-Saints,+33 1 64 03 17 14,http://www.paysdecoulommiers.fr,mairie.beautheilsaints@orange.fr,20008162800014,3.04642009735,48.7597999573,Saints  24 Grande rue 77120 Beautheil-Saints,yes,,Mo-Tu 08:30-11:30; Th-Fr 08:30-11:30; Sa 09:00-11:30,77433,5a81c3c0-991f-44ef-a699-d17e79fe96ad,Way/115175552
mairie,Mairie - Beauvoir,,Mairie de Beauvoir,+33 1 64 06 19 58,,beauvoir-mairie@wanadoo.fr,21770029300012,2.8626432,48.6448953,  Rue du Fief 77390 Beauvoir,limited,sonner ou téléphoner avant de se déplacer,Mo 18:00-19:00; Th 14:30-15:30,77029,64f83220-e577-42ce-90b7-1dd2472c1239,way/362629172
mairie,Mairie - Bellefontaine,,Mairie de Bellefontaine,+596 5 96 55 00 96,,mairie@ville-bellefontaine.fr,21972234500010,-61.1639,14.675,  Place Simon-Charles-François 97222 Bellefontaine,yes,,"Mo 07:30-12:30,14:30-17:30; Tu-We 07:30-14:00; Th 07:30-12:30,14:30-17:30; Fr 07:30-13:00",97234,c4a22c3e-ccbd-4c9d-bc5f-45b45faba22d,way/125079898
mairie,Mairie - Bellot,,Mairie de Bellot,+33 1 64 04 81 98,http://www.bellot77.fr,mairie@bellot77.fr,21770030100013,3.318031,48.857068,  1 place de l'Église 77510 Bellot,yes,plain-pied,We 14:30-16:00; Fr 16:00-18:00,77030,c81f5264-19f8-4d90-8d9f-86a939bd6e02,node/4798915866
mairie,Mairie - Bernay-Vilbert,,Mairie de Bernay-Vilbert,+33 1 64 25 65 61,http://www.bernay-vilbert.fr,mairie-bernay-vilbert@wanadoo.fr,21770031900015,2.93830990791,48.6745986938,  6 place du Buteau 77540 Bernay-Vilbert,yes,rampe,Tu-We 16:30-18:00; We 13:30-14:30; Fr 13:30-15:00; Sa 09:00-10:15; Sa 10:30-12:00,77031,3060e539-bc7e-415b-b580-9a32b41ebf10,way/229305691
mairie,Mairie - Beton-Bazoches,,Mairie de Beton-Bazoches,+33 1 60 58 50 00,,mairie-de-beton-bazoches3@wanadoo.fr,21770032700018,3.24733996391,48.7015991211,  2 rue de l'Hôtel-de-Ville 77320 Beton-Bazoches,yes,plain-pied,"Mo 10:00-12:30; Tu 10:00-12:00,18:00-19:30; Th-Fr 10:00-12:30",77032,225244ee-f6b9-43c1-a948-9cf53311b680,node/7618324588
mairie,Mairie - Bezalles,,Mairie de Bezalles,+33 1 64 01 00 33,,mairiebezalles@orange.fr,21770033500011,3.24249601364,48.6782112122,  Place de la Mairie 77970 Bezalles,yes,plain-pied,Tu 17:00-19:00,77033,129237e7-24ed-4f75-a6df-93059d1e7a4a,way/148480154
mairie,Mairie - Blandy-les-Tours,,Mairie de Blandy-les-Tours,+33 1 60 66 90 23,http://www.blandy-les-tours.fr,mairie@blandylestours.fr,21770034300015,2.7823316,48.5669067,  1 place des Tours 77115 Blandy,yes,rampe,Mo-Tu 16:00-18:00; Th-Fr 16:00-18:00; Sa 10:00-12:00,77034,62cf2ba0-fab3-496e-9c88-72609a7ac5e2,way/113274452
mairie,Mairie - Blennes,,Mairie de Blennes,+33 1 64 31 93 31,http://www.blennes.fr,mairie.blennes@wanadoo.fr,21770035000010,3.02164006233,48.2584991455,  Rue des Moines 77940 Blennes,yes,passerelles,Mo 16:00-18:00; We 10:30-12:00; Th 16:00-18:00,77035,07e02456-a7e3-421f-935c-65c2d4002fd0,way/278594287
mairie,Mairie - Bobigny,,Mairie de Bobigny,+33 1 41 60 93 93,https://www.bobigny.fr/,,21930008400015,2.445042,48.906182,  31 avenue du Président-Salvador-Allende 93000 Bobigny,yes,,Mo-Fr 08:30-17:00; Sa 09:00-11:45,93008,f91ec498-396d-4ea7-aa5c-c5ed2cfed87b,way/77744232
mairie,Mairie - Bois-le-Roi,,Mairie de Bois-le-Roi,+33 1 60 59 18 00,http://www.ville-boisleroi.fr,affaires-generales@ville-boisleroi.fr,21770037600015,2.69355010986,48.4760017395,  4 avenue Paul-Doumer 77590 Bois-le-Roi,yes,rampe,"Mo-Fr 09:00-12:00,14:00-17:00; Sa 09:00-12:00",77037,cf4dffdb-86a8-4c8e-8112-384f80b42e48,way/257237360
mairie,Mairie - Boisdon,,Mairie de Boisdon,+33 1 64 60 70 95,,secretariat@mairie-boisdon.fr,21770036800012,3.22804,48.683868,  26 Grande rue 77970 Boisdon,yes,"rampe, plain-pied",Mo 16:00-17:15; Tu 08:45-10:45; Fr 16:30-19:00,77036,b0523068-4b94-4627-97d3-fab880de965b,way/148483791
mairie,Mairie - Boissettes,,Mairie de Boissettes,+33 1 64 37 83 05,http://www.boissettes.fr,mairie@boissettes.fr,21770038400019,2.6107156,48.5206946,  3 place de Verdun 77350 Boissettes,yes,plain-pied,Mo 15:00-18:00; We-Th 09:00-12:00; Fr 15:00-18:00; Sa 09:00-12:00,77038,374dcdb1-0be9-4baf-95cf-9a00da7d6ae5,node/4798913799
mairie,Mairie - Boissise-la-Bertrand,,Mairie de Boissise-la-Bertrand,+33 1 64 38 20 21,http://www.boissise-la-bertrand.fr,boissise-la-bertrand@orange.fr,21770039200012,2.5886900425,48.5293998718,  2 rue François-Rolin 77350 Boissise-la-Bertrand,yes,,"Mo 13:30-19:00; Tu 08:30-12:00,13:30-18:00; We 09:00-12:00; Th 08:30-12:00,13:30-18:00; Fr 09:00-12:00",77039,b0e9bba4-8d66-48d3-88f9-588fc7f9469d,node/4798916923
mairie,Mairie - Boissise-le-Roi,,Mairie de Boissise-le-Roi,+33 1 60 65 44 00,http://www.mairie-boissise-le-roi.fr,contact@mairie-boissise-le-roi.fr,21770040000013,2.57333993912,48.5288009644,  11 rue du Château 77310 Boissise-le-Roi,yes,,"Mo-We 08:30-12:00,13:30-17:30; Th 08:30-12:00; Fr 08:30-12:00,13:30-17:00; Sa 09:00-12:00",77040,3444e703-ffea-4500-9228-9c2a51f23351,way/113301208
mairie,Mairie - Boissy-aux-Cailles,,Mairie de Boissy-aux-Cailles,+33 1 64 24 58 09,http://www.boissyauxcailles.fr,mairie.boissy-aux-cailles@wanadoo.fr,21770041800015,2.50473999977,48.3186988831,  Place de l'Église 77760 Boissy-aux-Cailles,yes,,Tu 14:00-17:00; Th 14:00-17:00; Sa 10:00-12:00,77041,9129b03e-548d-40f7-bf33-7ebefdae4e88,node/4798915553
mairie,Mairie - Boissy-le-Châtel,,Mairie de Boissy-le-Châtel,+33 1 64 03 08 16,https://www.boissy-le-chatel.com/,mairieboissylechatel@wanadoo.fr,21770042600018,3.136157,48.820974,  3 place de la Mairie 77169 Boissy-le-Châtel,yes,accès par l'arrière de la mairie,"Mo-Tu 08:45-12:30,13:15-16:00; Th 08:45-12:30,13:15-16:00; Fr 08:45-12:30; Sa 09:00-12:00",77042,d614b050-87ff-4507-b3bc-a1145daa1b05,node/4798916927
mairie,Mairie - Boitron,,Mairie de Boitron,+33 1 64 04 93 16,,mairieboitron@wanadoo.fr,21770043400012,3.260803,48.8981553,  37 route du Montcet 77750 Boitron,no,,We 10:00-11:30; Sa 10:00-11:30,77043,cd2798d4-1c3e-4df2-aad3-302a24ee2539,node/4798916933
mairie,Mairie - Bombon,,Mairie de Bombon,+33 1 64 38 72 98,https://mairie-bombon.com,mairie.bombon@wanadoo.fr,21770044200015,2.85824990273,48.5730018616,  48 rue Grande 77720 Bombon,yes,rampe d'accès,Mo 10:30-12:00; Tu 17:00-18:30; Th-Fr 10:30-12:00; Sa 09:00-12:00,77044,940fce9d-3f0e-4830-aca9-3ba5842ebfcc,node/4798915886
mairie,Mairie - Bondy,,Mairie de Bondy,+33 1 48 50 53 00,https://www.ville-bondy.fr/,communication@ville-bondy.fr,21930010000019,2.482633,48.9021604,  Esplanade Claude-Fuzier 93143 Bondy Cedex,yes,monte-personne,Mo 09:00-17:15; Tu 10:30-19:15; We-Fr 09:00-17:15,93010,eb1dff87-9ca8-4f58-96f2-823afc7de6a4,way/84177487
mairie,Mairie - Bougligny,,Mairie de Bougligny,+33 1 64 28 70 56,,mairie.bougligny@wanadoo.fr,21770045900019,2.65769004822,48.1955986023,  2 allée du Parc 77570 Bougligny,yes,plain-pied,Mo-Tu 09:00-12:00; Th-Sa 09:00-12:00,77045,509d62ae-7fdd-4ada-9988-2ff73f903af2,node/4798915895
mairie,Mairie - Bouillante,,Mairie de Bouillante,+590 5 90 98 70 04,https://www.ville-bouillante.fr/,courrier@ville-bouillante.fr,21971106600015,-61.76882,16.132712,Hôtel de ville  Le Bourg 97125 Bouillante,yes,,"Mo-Tu 08:00-12:30,14:00-17:30; We 08:00-13:30; Th 08:00-12:30,14:00-17:30; Fr 08:00-13:30",97106,d91d16b9-4445-46f6-b286-80fabfbb4753,way/41875548
mairie,Mairie - Boulancourt,,Mairie de Boulancourt,+33 1 64 24 10 34,http://www.boulancourt77.fr,mairie-boulancourt@wanadoo.fr,21770046700012,2.43510293961,48.258102417,  Place de la Mairie 77760 Boulancourt,yes,rampe,Tu 15:00-19:00; Th 15:00-19:00; Sa 10:00-12:00,77046,bd56c773-cfaa-4e0a-b062-132357125ae3,node/4798915885
mairie,Mairie - Bouleurs,,Mairie de Bouleurs,+33 1 64 63 84 14,https://www.bouleurs.fr/,mairiedebouleurs@wanadoo.fr,21770047500015,2.906263,48.88142,  24 rue de l'Église 77580 Bouleurs,yes,,"Mo-Th 09:00-12:00; Fr 09:00-12:00,14:00-18:00; Sa 09:00-12:00",77047,014aa2d0-16e3-4261-93dd-68ba3e7c69f4,node/4798913772
mairie,Mairie - Bourron-Marlotte,,Mairie de Bourron-Marlotte,+33 1 64 45 58 50,http://bourronmarlotte.fr,mairie-bourron-marlotte@wanadoo.fr,21770048300019,2.70440006256,48.3404006958,  135 rue du Général-de-Gaulle 77780 Bourron-Marlotte,yes,,"Mo-Th 09:00-12:00,14:00-17:30; Fr 09:00-12:00,14:00-17:00; Sa 09:00-12:00",77048,1daafc6f-24a0-45ec-b68c-487390f7a40f,node/4798915901
mairie,Mairie - Boutigny,,Mairie de Boutigny,+33 1 60 25 63 84,http://www.bouitigny77.fr,boutigny-77@wanadoo.fr,21770049100012,2.9286301136,48.9178009033,  18 rue la Fontaine 77470 Boutigny,no,,Mo 10:00-12:00; Tu 16:00-18:00; Th-Fr 16:00-18:00,77049,b0e52474-e354-4da1-9c99-f0298dae3f64,node/4798913795
mairie,Mairie - Bouéni,,Mairie de Bouéni,+262 2 69 62 16 31,,contact@boueni.fr,20000874600014,45.080349,-12.910355,  2 rue de la Fraternité 97620 Bouéni,yes,,"Mo-Th 07:15-12:00,13:00-16:00; Fr 07:15-11:15",97604,d2d0d944-ae70-4897-8f2a-b44fff4b61c4,way/755370480
mairie,Mairie - Bransles,,Mairie de Bransles,+33 1 64 29 54 91,,bransles.mairie@orange.fr,21770050900011,2.835019,48.152125,  1 place du Général-de-Gaulle 77620 Bransles,yes,rampe,We 10:30-12:00; Th 17:00-18:00,77050,0726c665-7fe0-4cc5-a1e0-10aba37d38b0,node/4798913788
mairie,Mairie - Bras-Panon,,Mairie de Bras-Panon,+262 2 62 51 50 50,https://www.braspanon.re,cabinet@braspanon.re,21974002400019,55.6756267,-20.9944907,  89 route nationale 2 97412 Bras-Panon,yes,,Mo-Th 08:00-16:30; Fr 08:00-12:00,97402,ddb044ae-b297-41ee-a265-f1b1663f24c2,relation/2972562
mairie,Mairie - Bray-sur-Seine,,Mairie de Bray-sur-Seine,+33 1 60 67 10 11,http://www.bray-sur-seine.fr,mairiedebraysurseine@orange.fr,21770051700014,3.239597,48.414887,  1 place du Général-de-Gaulle 77480 Bray-sur-Seine,yes,rampe,"Mo-Th 08:30-12:00,13:30-17:00; Fr 08:30-12:00,13:30-16:00",77051,1debd90f-6812-43ec-bf78-3195aa0ba41b,node/2736241740
mairie,Mairie - Brie-Comte-Robert,,Mairie de Brie-Comte-Robert,+33 1 60 62 64 00,https://www.briecomterobert.fr/,mairie@briecomterobert.fr,21770053300011,2.611084,48.694836,  2 rue de Verdun 77170 Brie-Comte-Robert,yes,plain-pied,"Mo-Fr 09:00-12:30,13:30-17:30; Sa 09:00-12:00",77053,2b2cf805-dd15-4c3f-ae22-164126d32443,way/113064466
mairie,Mairie - Brou-sur-Chantereine,,Mairie de Brou-sur-Chantereine,+33 1 64 26 66 66,http://www.brousurchantereine.info,mairie@brousurchantereine.fr,21770055800018,2.629519,48.882677,  3 rue Lazare-Carnot 77177 Brou-sur-Chantereine,yes,ascenseur,"Mo-Tu 08:30-12:00,13:30-17:30; We 08:30-12:30; Th 08:30-12:00,13:30-18:30; Fr 08:30-12:00,13:30-17:30; Sa 09:00-12:00",77055,934c7856-db77-45b3-be39-cff986bfd112,node/8228934441
mairie,Mairie - Bréau,,Mairie de Bréau,+33 1 64 38 72 39,,mairie-breau@wanadoo.fr,21770052500017,2.8776865,48.5616045,  210 rue de l'École 77720 Bréau,yes,plain-pied,"Mo-Tu 09:00-12:00; Th 09:00-12:00,17:00-19:30; Fr 09:00-12:00; Sa 09:00-12:00",77052,d2ef5a67-bebc-4404-81b5-91432e22e3aa,node/9309443763
mairie,Mairie - Burcy,,Mairie de Burcy,+33 1 64 24 07 62,,burcy-mairie@orange.fr,21770056600011,2.522488,48.2382244,  25 rue Grande 77760 Burcy,yes,rampe,Fr 16:00-19:00,77056,188dbbae-5ad1-4db4-9ade-216c47171a8c,node/3878093990
mairie,Mairie - Bussières,,Mairie de Bussières,+33 1 60 22 50 04,http://www.bussieres77.fr,mairie.bussieres77@wanadoo.fr,21770057400015,3.2356311,48.9224757,  Rue de la Mairie 77750 Bussières,yes,rampe,Mo 16:00-18:00; Th 17:00-18:00; Fr 14:00-17:00; Sa 11:00-12:00,77057,6de2dc02-a4ba-4bc5-92b5-cb43a86ce0b1,way/115362941
mairie,Mairie - Bussy-Saint-Georges,,Mairie de Bussy-Saint-Georges,+33 1 87 94 24 24,http://www.bussy-saint-georges.fr,cabinet@bussy-saint-georges.fr,21770058200018,2.69791007042,48.8436012268,  Place de la Mairie 77600 Bussy-Saint-Georges,yes,rampe,"Mo 09:00-12:00,14:00-17:30; We-Fr 09:00-12:00,14:00-17:30; Sa 09:00-11:45",77058,75cc4bd0-7e62-4e64-b32e-3b0b50733ec5,way/113171363
mairie,Mairie - Bussy-Saint-Martin,,Mairie de Bussy-Saint-Martin,+33 1 64 66 11 20,http://www.bussy-saint-martin.com,contact@bussy-saint-martin.com,21770059000011,2.6897507,48.8500943,  2 rue de la Montagne 77600 Bussy-Saint-Martin,yes,plain-pied,Mo 14:00-16:00; We 09:00-12:00; Fr 15:00-19:00,77059,11fd6e3d-5b3d-4d91-9ef6-f3db637cf5e9,node/4798915889
mairie,Mairie - Buthiers,,Mairie de Buthiers,+33 1 64 24 14 15,http://www.buthiers.fr,mairie.buthiers@wanadoo.fr,21770060800011,2.43021011353,48.2864990234,  7 rue des Roches 77760 Buthiers,yes,ascenseur,Mo-Tu 14:00-17:00; Th 14:00-17:00; Fr 14:00-16:00; Sa 09:00-12:00,77060,70566176-044e-4eee-a30e-81b119509dba,node/3877912093
mairie,Mairie - Camopi,,Mairie de Camopi,+594 5 94 37 44 00,,,21973356500010,-52.3411,3.1655,  Bourg de Camopi 97330 Camopi,,,Mo-Fr 07:00-12:30,97356,8a242e55-e74f-48fd-8831-5b97ed13252a,node/4048975595
mairie,Mairie - Cannes-Écluse,,Mairie de Cannes-Écluse,+33 1 60 73 57 00,http://www.cannes-ecluse.fr,mairie@cannes-ecluse.com,21770061600014,2.99059009552,48.3618011475,  67 rue Désiré-Thoison 77130 Cannes-Écluse,yes,rampe,"Mo-Fr 08:30-12:30,14:00-18:00",77061,b611a1dc-ede0-4ffb-a25b-2f8d064d7029,way/115186628
mairie,Mairie - Capesterre-Belle-Eau,,Mairie de Capesterre-Belle-Eau,+590 5 90 86 30 04,https://capesterrebelleeau.fr,contact@capesterrebelleeau.fr,21971107400019,-61.5651974,16.0430698,  Avenue Paul-Lacavé 97130 Capesterre-Belle-Eau,,,"Mo-Tu 07:30-12:30,14:00-17:00; We 07:30-13:00; Th 07:30-12:30,14:00-17:00; Fr 07:30-13:00",97107,e907770e-1333-40d0-bbde-b4aad025e03c,way/287147726
mairie,Mairie - Capesterre-de-Marie-Galante,,Mairie de Capesterre-de-Marie-Galante,+590 5 90 97 30 31,https://www.capesterredemariegalante.fr/,contact@capesterredemariegalante.fr,21971108200012,-61.2568777,15.9232223,  Place Félix-Éboué 97140 Capesterre-de-Marie-Galante,yes,,Mo-Tu 08:00-16:00; We 07:30-13:00; Th 08:00-16:00; Fr 07:30-13:00,97108,e5e7d933-8504-4bc7-97ff-2df5abc6b293,way/125323241
mairie,Mairie - Carnetin,,Mairie de Carnetin,+33 1 64 30 24 20,http://www.carnetin.fr,mairie.carnetin@wanadoo.fr,21770062400018,2.70638990402,48.8989982605,  32 rue Albert-Mattar 77400 Carnetin,yes,,"Mo-Tu 13:00-16:30; We 08:30-12:00,13:00-16:30; Th-Fr 13:00-16:30",77062,8a94dbd1-d3bc-4df1-a5b3-1d6693f3f964,node/4798916931
mairie,Mairie - Case-Pilote,,Mairie de Case-Pilote,+596 5 96 78 81 44,http://www.mairiecasepilote.fr,contact@mairiecasepilote.fr,21972205500015,-61.1388068,14.6430374,  Place Gaston-Monnerville 97222 Case-Pilote,yes,,"Mo 07:30-13:30,14:30-17:00; Tu-We 07:30-13:30; Th 07:30-13:30,14:30-17:00; Fr 07:30-13:30",97205,abe5569b-6d2d-4e0e-806c-31636812d7ff,way/177538596
mairie,Mairie - Cayenne,,Mairie de Cayenne,+594 5 94 39 70 70,http://www.ville-cayenne.fr/,contact@ville-cayenne.fr,21973302900017,-52.335024,4.938042,  1 rue de Rémire 97300 Cayenne,yes,rampe à l'arrière du bâtiment,Mo-Fr 07:30-14:00,97302,f67f764b-2c50-4e4b-9a03-7a714e234481,way/71470728
mairie,Mairie - Cerneux,,Mairie de Cerneux,+33 9 63 01 50 88,,mairie.cerneux@wanadoo.fr,21770066500011,3.344619,48.693656,  1 rue de l'Église 77320 Cerneux,yes,,Tu 08:00-10:00; Fr 16:00-18:00,77066,50358eb2-cea7-44f8-a391-86253c6c9687,way/115309054
mairie,Mairie - Cesson,,Mairie de Cesson,+33 1 64 10 51 00,http://www.ville-cesson.fr,contact@ville-cesson.fr,21770067300106,2.60323596001,48.5626296997,  8 route de Saint-Leu 77245 Cesson Cedex,yes,ascenseur,"Mo-We 08:30-12:00,14:00-17:30; Th 08:30-12:00; Fr 08:30-12:00,14:00-17:30; Sa 09:30-12:00",77067,b752f1f0-c95e-45fa-8aa8-a0b8ce698781,way/113223218
mairie,Mairie - Cessoy-en-Montois,,Mairie de Cessoy-en-Montois,+33 1 60 67 44 72,,mairiecessoyenmontois@wanadoo.fr,21770068100018,3.146738,48.504629,  1 place de la Mairie 77520 Cessoy-en-Montois,yes,,"Mo 14:00-17:30; Th 09:00-12:00,14:00-17:30",77068,981a4a27-d790-4290-a2df-c55b4331e588,node/4798915563
mairie,Mairie - Chailly-en-Bière,,Mairie de Chailly-en-Bière,+33 1 60 66 43 41,http://www.mairie-chailly-en-biere.fr,mairie@chaillyenbiere.fr,21770069900010,2.6071999073,48.4659004211,  2 place du Général-Leclerc 77930 Chailly-en-Bière,yes,rampe,"Mo 08:45-12:00,14:00-16:00; Tu 08:45-12:00; We 08:45-12:00,14:00-16:00; Th 08:45-12:00; Fr 08:45-12:00,14:00-16:00; Sa 08:45-12:00",77069,22368f09-840c-43b6-bebf-1151dfc554b2,way/30836803
mairie,Mairie - Chailly-en-Brie,,Mairie de Chailly-en-Brie,+33 1 64 03 09 61,https://www.chailly-en-brie.fr,mairie.chaillyenbrie@wanadoo.fr,21770070700011,3.1241827,48.7894453,  2 rue du Merisier 77120 Chailly-en-Brie,yes,rampe,Mo-Tu 09:00-12:00; Th-Sa 09:00-12:00,77070,55888ba5-1ccf-4244-9972-6223b59e8518,node/1645490649
mairie,Mairie - Chaintreaux,,Mairie de Chaintreaux,+33 1 64 29 56 53,https://chaintreaux.fr,accueil@chaintreaux.fr,21770071500014,2.81981992722,48.1991996765,  10 rue de la Mairie 77460 Chaintreaux,yes,,"Mo 10:15-11:45; Tu 09:00-12:30,13:30-17:00; We-Th 10:15-11:45; Fr 09:00-12:30,13:30-17:00",77071,9659318d-42c7-4fc4-b787-d1f75e96f224,node/4798913802
mairie,Mairie - Chalautre-la-Grande,,Mairie de Chalautre-la-Grande,+33 1 64 00 82 72,http://www.chalautre-la-grande.fr/,mairie-chalautre-la-gde@wanadoo.fr,21770072300018,3.45970988274,48.5415000916,  5 rue Beauregard 77171 Chalautre-la-Grande,yes,rampe d'accès,Mo 17:00-19:00; Th 17:00-19:00; Fr 18:30-20:00,77072,cc327ded-4aac-4b77-83c0-94c755bc6ed2,node/4798915872
mairie,Mairie - Chalautre-la-Petite,,Mairie de Chalautre-la-Petite,+33 1 64 00 18 76,https://chalautrelapetite.fr/fr,mairie@chalautrelapetite.fr,21770073100011,3.3145394,48.5291641,  1 place de la Mairie 77160 Chalautre-la-Petite,yes,plain-pied,Tu 16:00-18:30; Th 16:00-18:30,77073,dbbbe22f-e0d3-445c-9bd2-dc39229cd892,node/4798915897
mairie,Mairie - Chalifert,,Mairie de Chalifert,+33 1 60 43 82 38,http://www.chalifert.fr,mairiechalifert@wanadoo.fr,21770075600018,2.77397990227,48.8875007629,  Rue Louis-Braille 77144 Chalifert,yes,,"Mo-Tu 08:30-12:00,14:00-17:00; We 08:30-12:00; Th-Fr 08:30-12:00,14:00-17:00; Sa 09:00-12:00",77075,943fe8c1-c28d-49f5-bf18-670391e11091,node/4798915891
mairie,Mairie - Chalmaison,,Mairie de Chalmaison,+33 1 64 01 76 07,http://www.mairie-chalmaison.fr,contact@mairie-chalmaison.fr,21770076400012,3.2506077,48.4827573,  29 rue Henri-Brugeail 77650 Chalmaison,yes,,Mo 14:00-18:00; We 14:00-18:00; Fr 14:00-17:00; Sa 09:00-12:00,77076,cf8aa04f-7640-4b76-8407-da564c9452a2,node/3974485342
mairie,Mairie - Chambry,,Mairie de Chambry,+33 1 64 34 04 77,,mairie-chambry@orange.fr,21770077200015,2.89335989952,48.9976005554,  10 rue de la Ville 77910 Chambry,yes,rampe,Mo 14:00-18:00; Tu 09:00-12:00; Th 14:00-18:00; Fr 14:00-17:00,77077,962bff19-33af-4a3c-8149-49d80a91fbcc,node/3842874864
mairie,Mairie - Chamigny,,Mairie de Chamigny,+33 1 60 22 05 46,http://www.chamigny.fr,mairie-chamigny@wanadoo.fr,21770078000018,3.1507015,48.974017,  33 rue Roubineau 77260 Chamigny,yes,plain-pied par l'arrière du bâtiment,Mo 08:30-11:30; Tu-Th 09:30-11:30; Fr 13:30-19:00,77078,623af552-a3bd-40ff-ad14-a621a369bdfe,node/4798916934
mairie,Mairie - Champagne-sur-Seine,,Mairie de Champagne-sur-Seine,+33 1 60 39 51 20,http://www.champagne-sur-seine.fr,cabinet@champagne-sur-seine.fr,21770079800010,2.80452990532,48.3949012756,  149 rue Grande 77430 Champagne-sur-Seine,yes,plain-pied et ascenseur,"Mo-Th 09:00-12:00,14:00-17:30; Fr 09:00-12:00,14:00-16:45; Sa 09:00-12:00",77079,9bb7863a-6e3a-4220-adf9-818d936f754c,way/115198773
mairie,Mairie - Champcenest,,Mairie de Champcenest,+33 9 86 76 00 56,,champcenest.mairie@gmail.com,21770080600011,3.282952,48.669498,  8 avenue des Peupliers 77560 Champcenest,yes,,Mo 09:00-12:00; We 13:00-16:30; Th 15:00-19:00,77080,5e208bdc-19a0-4cb6-863a-7b6af20ede55,node/4798915868
mairie,Mairie - Champdeuil,,Mairie de Champdeuil,+33 1 64 38 87 63,http://www.champdeuil.fr,commune.de.champdeuil@wanadoo.fr,21770081400015,2.731561,48.620691,  43 rue Grande 77390 Champdeuil,yes,,"Mo 09:00-12:00,14:00-16:30; Tu 09:00-12:00,15:00-18:30; We 09:00-12:00; Th 09:00-12:00,14:00-16:30; Fr 09:00-12:00",77081,cd77ba75-6d5d-47a4-9e6e-4e41fb539aa8,way/113305753
mairie,Mairie - Champeaux,,Mairie de Champeaux,+33 1 60 66 91 88,https://champeaux-77.fr,mairie4.champeaux.77@orange.fr,21770082200018,2.806179,48.583619,  5 place du Cloître 77720 Champeaux,yes,,"Mo 13:00-17:30; Tu 08:00-12:00,13:00-17:30; Th 13:00-17:30; Fr 08:00-12:00,13:00-17:30; Sa 08:30-12:00",77082,f8878d98-037a-4eea-88a3-8d3688dce537,way/176175881
mairie,Mairie - Champs-sur-Marne,,Mairie de Champs-sur-Marne,+33 1 64 73 48 48,http://www.ville-champssurmarne.fr,courrier@ville-champssurmarne.fr,21770083000011,2.6023828,48.8531557,  Mail Jean-Ferrat 77420 Champs-sur-Marne,yes,,"Mo-Fr 08:30-12:00,13:30-17:45; Sa 09:00-12:00",77083,41dd51b7-43d5-45c3-a2f7-392b7b50f4cb,relation/2673069
mairie,Mairie - Changis-sur-Marne,,Mairie de Changis-sur-Marne,+33 1 64 35 90 74,http://www.changis-sur-marne.fr,mairie@changis-sur-marne.fr,21770084800013,3.01478004456,48.9570007324,  Place du Docteur-Cruchaudeau 77660 Changis-sur-Marne,yes,,Mo 14:00-18:30; We 09:00-12:00; Th 14:00-18:30; Sa 09:00-12:00,77084,c7addd83-39b8-4e85-92c3-6a46c2b97397,node/4077694640
mairie,Mairie - Chanteloup-en-Brie,,Mairie de Chanteloup-en-Brie,+33 1 64 12 74 50,http://www.mairie-chanteloup-en-brie.fr,accueil@chanteloupenbrie.fr,21770085500018,2.739285,48.85647,  1 place Antoinette-Chocq 77600 Chanteloup-en-Brie,no,,"Mo 09:30-12:00,15:00-18:45; Tu-We 09:30-12:00,14:00-16:45; Fr 09:30-12:00,14:00-16:45; Sa 09:00-11:45",77085,d05253ea-40b0-49c3-aa60-375fd269c3ef,way/115371880
mairie,Mairie - Charmentray,,Mairie de Charmentray,+33 1 60 01 90 06,http://www.charmentray.fr,mairie.charmentray@orange.fr,21770094700013,2.77835988998,48.9480018616,  39 rue des Deux-Jumeaux 77410 Charmentray,yes,plain-pied,Tu 14:00-18:00; Th 14:00-19:00,77094,bee39188-534f-4099-8351-c0ce9a3ec422,node/3351967873
mairie,Mairie - Charny,,Mairie de Charny,+33 1 60 01 91 08,http://www.charny77.fr,mairie.charny77@wanadoo.fr,21770095400019,2.76107001305,48.9710006714,  1 rue de l'Église 77410 Charny,yes,rampe d'accès et ascenseur,"Mo 13:30-19:00; Tu 08:30-12:00,13:30-18:00; We 08:30-12:00; Th 08:30-12:00,13:30-19:00; Fr 08:30-12:00,13:30-18:00; Sa 10:00-12:00",77095,90738439-6644-4317-b76f-76663fe3f223,node/3351968053
mairie,Mairie - Chartrettes,,Mairie de Chartrettes,+33 1 60 69 65 01,http://www.mairie-chartrettes.fr,mairie@mairie-chartrettes.fr,21770096200012,2.69564008713,48.492099762,  37 ter rue Georges-Clemenceau 77590 Chartrettes,yes,plain-pied,"Mo 09:00-12:00,14:00-17:30; Tu-We 09:00-12:00; Th 09:00-12:00,14:00-17:30; Fr 09:00-12:00; Sa 09:15-12:00",77096,7c0a2430-a60a-4d10-882c-d6853d77ffc5,node/2362233346
mairie,Mairie - Chartronges,,Mairie de Chartronges,+33 1 64 04 04 29,,mairie.chartronges@orange.fr,21770097000015,3.2180232,48.758751,  34 Grande rue 77320 Chartronges,yes,plain-pied,Mo 08:30-12:30; Th 13:30-17:00; Fr 08:30-12:00,77097,86da5e0c-52df-4822-8e67-3ec01258c5fb,node/4798913791
mairie,Mairie - Chauconin-Neufmontiers,,Mairie de Chauconin-Neufmontiers,+33 1 64 33 11 18,http://www.chauconin-neufmontiers.fr,chauconin-neufmontiers@wanadoo.fr,21770335400019,2.838348,48.973592,  Rue Pierre Charton 77124 Chauconin-Neufmontiers,yes,,"Mo 09:00-12:00,15:00-18:00; Tu 15:00-19:00; We 09:00-12:00; Th 15:00-18:00; Fr 09:00-12:00,15:00-18:00; Sa 09:00-12:00",77335,338228d2-dc11-462c-88ff-4359682c6d36,way/116129531
mairie,Mairie - Chauffry,,Mairie de Chauffry,+33 1 64 20 42 31,http://www.chauffry.fr,mairie-chauffry@wanadoo.fr,21770106900015,3.18268990517,48.8149986267,  45 rue de la Mairie 77169 Chauffry,yes,,"Mo 09:00-12:00; Tu 09:00-12:00,14:00-18:00; Th-Fr 09:00-12:00",77106,86a7caff-e73b-431a-8e27-bbb4a836cdd6,way/115149865
mairie,Mairie - Chaumes-en-Brie,,Mairie de Chaumes-en-Brie,+33 1 64 25 00 00,http://www.ville-chaumes-en-brie.fr,mairie@chaumes-en-brie.fr,21770107700018,2.841244,48.666072,  Place Foch 77390 Chaumes-en-Brie,yes,plain-pied,"Mo-Tu 09:00-12:00,14:00-17:00; We 09:00-12:00; Th 14:00-17:00; Fr 09:00-12:00,14:00-17:00; Sa 09:00-12:00",77107,13fbe043-734e-4430-8ddc-dbae62d284a0,node/980768724
mairie,Mairie - Chelles,,Mairie de Chelles,+33 1 64 72 84 84,https://www.chelles.fr/,maire@chelles.fr,21770108500011,1.8963993,49.0866787,  Parc du Souvenir-Émile-Fouchard 77505 Chelles Cedex,yes,,"Mo-We 09:00-12:30,14:00-17:30; Th 12:00-17:30; Fr 09:00-12:30,14:00-17:30; Sa 09:00-12:30",77108,aa283e8f-ae35-4729-a92e-877a8ab1621f,way/111038720
mairie,Mairie - Chenoise-Cucharmoy,,Mairie de Chenoise-Cucharmoy,+33 1 64 00 91 18,,accueil@chenoise-cucharmoy.fr,20008403600041,3.195381,48.616363,Chenoise  1 ruelle saint loup 77160 Chenoise-Cucharmoy,yes,,"Mo-Tu 08:30-12:00,13:30-17:00; We 08:30-12:00; Th-Fr 08:30-12:00,13:30-17:00; Sa 09:30-11:30",77109,5de54c6b-def3-4b27-912d-a8cf74e0885a ,way/161044237
mairie,Mairie déléguée - Cucharmoy,,Mairie déléguée de Cucharmoy,+33 1 60 58 75 93,http://www.chenoise-cucharmoy.fr,mairie.cucharmoy@wanadoo.fr,20008403600041,3.19039,48.61097,Cucharmoy Place de l'Église Foyer rural 77160 Chenoise-Cucharmoy,yes,,Tu 08:30-12:00; Fr 08:30-12:00,77109,fab144cc-9570-4bcd-ab19-32d996daaba3,node/4798915881
mairie,Mairie - Chenou,,Mairie de Chenou,+33 1 64 29 33 12,,mairie.chenou@laposte.net,21770110100016,2.7057800293,48.2036018372,  6 rue de la Mairie 77570 Chenou,yes,plain-pied,Tu 16:30-19:00; Fr 16:30-19:00; Sa 09:30-11:30,77110,207c73b7-b5d6-4c2f-91a7-06548ea00804,node/4798915873
mairie,Mairie - Chessy,,Mairie de Chessy,+33 1 60 43 80 21,http://www.chessy77.fr,contact.mairie@chessy77.fr,21770111900018,2.81048202515,48.8962364197,  32 rue Charles-de-Gaulle 77700 Chessy,yes,plain-pied,"Mo 14:30-17:30; Tu-Fr 09:00-11:45,14:30-17:30; Sa 09:00-12:00",77111,3eb2cdd2-35a5-45f4-b2b8-9067eb7f37f7,node/4798915853
mairie,Mairie - Chevrainvilliers,,Mairie de Chevrainvilliers,+33 1 64 28 71 15,http://www.chevrainvilliers.fr,mairie.chevrainvilliers@orange.fr,21770112700011,2.6152639389,48.2447242737,  10 rue du Gâtinais 77760 Chevrainvilliers,yes,"rampe, rez-de-chaussée",Mo 14:30-16:30; We 10:00-12:00; Th 14:30-16:30,77112,914532f2-7e95-4cb2-86af-d5c71e75f362,node/4798915860
mairie,Mairie - Chevru,,Mairie de Chevru,+33 1 64 04 60 91,,mairiedechevru@laposte.net,21770113500014,3.19333004951,48.7355995178,  14 rue Médéric-Charot 77320 Chevru,yes,rampe,Mo-Tu 08:30-11:30; Th-Sa 08:30-11:30,77113,66ae3f1d-1b00-4c2f-8deb-c365b0819cf9,node/1636457731
mairie,Mairie - Chevry-Cossigny,,Mairie de Chevry-Cossigny,+33 1 64 05 20 22,http://www.chevry-cossigny.com,mairie@chevry-cossigny.fr,21770114300018,2.656962,48.724807,  29 rue Charles-Pathé 77173 Chevry-Cossigny,yes,,"Mo 09:00-12:00,14:00-17:30; Tu 09:00-12:00; We-Fr 09:00-12:00,14:00-17:30; Sa 09:00-12:00",77114,7e6358a1-0139-45bc-964d-166f863bce36,way/97561399
mairie,Mairie - Chevry-en-Sereine,,Mairie de Chevry-en-Sereine,+33 1 64 31 50 12,http://www.chevryensereine.fr,chevry.en.sereine@wanadoo.fr,21770115000013,2.94405007362,48.2624015808,  3 rue de la Croix-Saint-Marc 77710 Chevry-en-Sereine,yes,,Mo 14:00-16:30; We 09:00-12:00; Fr 14:00-16:30,77115,2b445ea8-dff4-4e5e-b642-26b3869e2a09,way/278566942
mairie,Mairie - Chiconi,,Mairie de Chiconi,+262 2 69 62 16 90,http://www.villedechiconi.fr,mairie@villedechiconi.fr,20000875300010,45.114157,-12.833038,  4 rue de l'Hôtel de ville 97670 Chiconi,yes,,"Mo-Th 07:00-12:00,13:30-16:15; Fr 07:00-11:00",97605,79ead539-37f2-48a1-88b3-ea81787b99fb,node/4737488821
mairie,Mairie - Chirongui,,Mairie de Chirongui,+262 2 69 62 18 03,,,20000877900015,45.1463158,-12.9374413,  11 rue de l’Hôtel-de-ville 97620 Chirongui,yes,,Mo-Th 07:30-16:30; Fr 07:00-11:00,97606,801d46a0-8383-451a-8994-0e1b5e5842d0,node/4382643974
mairie,Mairie - Choisy-en-Brie,,Mairie de Choisy-en-Brie,+33 1 64 75 81 90,http://www.choisy-en-brie.fr,mairie.choisy-en-brie@wanadoo.fr,21770116800015,3.22702002525,48.7594985962,  5 route de la Ferté-Gaucher 77320 Choisy-en-Brie,yes,,Mo-Sa 09:00-12:00,77116,b99c71ea-75cc-41f2-93b2-14113f91d217,node/4798915606
mairie,Mairie - Château-Landon,,Mairie de Château-Landon,+33 1 60 55 50 20,http://chateau-landon.com,mairie@chateau-landon.com,21770099600010,2.7044411,48.1499482,  2 place de l'Hôtel-de-Ville 77570 Château-Landon,yes,,"Mo-Th 08:30-12:30,13:30-17:00; Fr 08:30-12:30,13:30-15:30; Sa 09:00-12:00",77099,830ac83e-5a0d-4ec0-a7c9-fe80f9124c2e,node/423989967
mairie,Mairie - Châteaubleau,,Mairie de Châteaubleau,+33 1 64 01 69 45,,mairie.chateaubleau@wanadoo.fr,21770098800017,3.10976004601,48.5882987976,  1 rue de l'Église 77370 Châteaubleau,yes,"rampe, rez-de-chaussée",Mo 15:00-18:30; Th 15:00-18:30,77098,3497246a-14ee-4b0f-8e31-e05f81ec4cfa,way/148529985
mairie,Mairie - Châtenay-sur-Seine,,Mairie de Châtenay-sur-Seine,+33 1 64 31 30 21,http://www.chatenay-sur-seine.fr,chatenay.mairie@wanadoo.fr,21770101000019,3.096509,48.418895,  Place de la Mairie 77126 Châtenay-sur-Seine,limited,par le côté,"Mo 08:00-12:00,13:30-19:00; Tu-Fr 08:00-12:00,13:30-17:00; Sa 10:00-12:00",77101,2a551eeb-cd55-4d98-a7ec-787e51a8b6f7,node/4798915880
mairie,Mairie - Châtenoy,,Mairie de Châtenoy,+33 1 64 28 74 87,http://www.chatenoy.fr,mairiedechatenoy77@orange.fr,21770102800011,2.62854003906,48.2336997986,  Place de la Mairie 77167 Châtenoy,yes,plain-pied,We 14:30-18:30,77102,aff25e0d-d0cb-4e3d-a32a-d48e52dbad03,way/349231975
mairie,Mairie - Châtillon-la-Borde,,Mairie de Châtillon-la-Borde,+33 1 60 69 49 78,,chatillon.la.borde@wanadoo.fr,21770103600014,2.83496999741,48.529800415,  14 rue Grande 77820 Châtillon-la-Borde,yes,rez-de-chaussée,"Mo-Tu 09:00-12:00,14:00-17:30; Th-Fr 09:00-12:00,14:00-17:00",77103,14a2c745-094c-466b-92b4-1316a49688d2,node/4798913797
mairie,Mairie - Châtres,,Mairie de Châtres,+33 1 64 42 59 30,http://www.mairiedechatres.com,mairie.chatres@wanadoo.fr,21770104400018,2.8083999157,48.7114982605,  Rue de la Mairie 77610 Châtres,yes,rampe,Tu 16:30-18:00; Th-Fr 16:30-18:00; Sa 09:00-12:00,77104,05869a8b-d18f-4465-bf62-00b7da5c756a,way/148531556
mairie,Mairie - Cilaos,,Mairie de Cilaos,+262 2 62 31 89 89,http://www.ville-cilaos.fr,cabinet.maire.cilaos@ville-cilaos.fr,21974024800014,55.463134,-21.136617,  66 rue du Père-Boiteau 97413 Cilaos,yes,,"Mo-Th 08:00-12:00,12:45-16:30; Fr 08:00-12:00",97424,6b917eed-351b-4dba-9317-fc69de0cfe54,node/1928575754
mairie,Mairie - Citry,,Mairie de Citry,+33 1 60 23 60 27,http://www.citry.fr,mairie.citry@wanadoo.fr,21770117600018,3.23839211464,48.9686737061,  Place Gaston-de-Renty 77730 Citry,yes,,Mo-Tu 14:00-17:30; Th 14:00-17:30; Fr 14:00-16:30; Sa 09:00-12:00,77117,209de1c6-b68e-4145-b9ab-d6cf16e67b13,node/4798913789
mairie,Mairie - Claye-Souilly,,Mairie de Claye-Souilly,+33 1 60 26 92 00,http://www.claye-souilly.fr,contact@mairie-claye-souilly.fr,21770118400012,2.68787002563,48.9460983276,  1 allée André-Benoit 77410 Claye-Souilly,no,,"Mo-Th 08:30-12:00,13:30-17:30; Fr 08:30-12:00,13:30-17:00; Sa 09:00-12:00",77118,c4c7d81e-e1b8-4503-ad03-841cc0cd1899,node/2656471395
mairie,Mairie - Clichy-sous-Bois,,Mairie de Clichy-sous-Bois,+33 1 43 88 96 04,http://www.clichysousbois.fr,accueil.hdv@clichysousbois.fr,21930014200011,2.54611897469,48.9107093811,  Place du 11-Novembre-1918 93390 Clichy-sous-Bois,yes,"rampe, rez-de-chaussée",Tu 10:00-17:30; Mo 09:00-17:30; We-Fr 09:00-17:30; Sa 09:00-12:30,93014,7493c233-b6c2-4a29-9d88-794857194492,way/77731966
mairie,Mairie - Clos-Fontaine,,Mairie de Clos-Fontaine,+33 1 64 08 03 44,,mairie.closfontaine@wanadoo.fr,21770119200015,3.016738,48.608576,  7 rue de Nangis 77370 Clos-Fontaine,yes,,Mo 16:00-19:00; Th 16:00-19:00,77119,71c5458f-0c40-412f-9ae7-bc32fcb82651,node/4798915591
mairie,Mairie - Cocherel,,Mairie de Cocherel,+33 1 60 01 80 91,http://www.cocherel.fr,mairie@cocherel.fr,21770120000016,3.10122704506,49.021232605,  9 rue du Gué-Mathieu 77440 Cocherel,yes,plain-pied,Tu 14:00-17:00; Th 14:00-17:00,77120,04bdf64f-1853-4e87-be3d-d26da57dd131,node/4798915566
mairie,Mairie - Collégien,,Mairie de Collégien,+33 1 60 35 40 00,http://www.mairie-de-collegien.fr,,21770121800018,2.6731526,48.8364502,  8 place Mireille-Morvan 77090 Collégien,yes,plain-pied,"Mo 13:30-17:00; Tu-Fr 09:00-12:00,13:30-17:00; Sa 09:00-12:00",77121,03328750-c1f3-4150-8da6-a448328de154,way/115405802
mairie,Mairie - Combs-la-Ville,,Mairie de Combs-la-Ville,+33 1 64 13 16 00,https://www.combs-la-ville.fr/11/accueil.htm,contact@mairie-combs-la-ville.fr,21770122600011,2.55769,48.66602,  Esplanade Charles-de-Gaulle 77300 Combs-la-Ville,yes,plain-pied,"Mo-Fr 08:45-11:45,13:30-17:30; Sa 08:45-11:45",77122,3cd22b67-cd67-48d5-955c-27fc85bee115,way/168058004
mairie,Mairie - Compans,,Mairie de Compans,+33 1 60 26 10 06,https://www.mairiedecompans.fr,accueil@mairiedecompans.fr,21770123400015,2.661953,48.99444,  1 rue de la Mairie 77290 Compans,yes,,"Mo 08:30-12:00; Tu 13:30-17:30; We 08:30-12:00,13:30-17:30; Th 13:30-18:30; Fr 08:30-12:00",77123,59ac8a8c-63a9-4673-95df-b9c6fe4debcc,node/4798916230
mairie,Mairie - Conches-sur-Gondoire,,Mairie de Conches-sur-Gondoire,+33 1 64 02 26 17,http://www.conches-sur-gondoire.fr,accueil@conches-sur-gondoire.fr,21770124200018,2.7193300724,48.858001709,  Rue du Fort-du-Bois 77600 Conches-sur-Gondoire,yes,plain-pied,"Mo 09:00-12:00,14:00-16:00; Tu 09:00-12:00; Th 09:00-12:00,14:00-16:00; Fr-Sa 09:00-12:00",77124,48302552-b075-489e-88c3-baeb3aaee59a,way/886987982
mairie,Mairie - Condé-Sainte-Libiaire,,Mairie de Condé-Sainte-Libiaire,+33 1 60 04 31 94,http://www.conde-sainte-libiaire.csime.eu,contact.conde@csl77450.fr,21770125900012,2.83111000061,48.8972015381,  Rue de la Mairie 77450 Condé-Sainte-Libiaire,yes,,"Mo-Tu 09:00-12:00; We 09:00-12:00,14:00-17:30; Th-Sa 09:00-12:00",77125,96aed90a-6aa8-44b4-82c7-88c3f5accf12,way/252946100
mairie,Mairie - Congis-sur-Thérouanne,,Mairie de Congis-sur-Thérouanne,+33 1 64 35 50 03,,mairie.congis@wanadoo.fr,21770126700015,2.97426,49.007025,  20 rue de la Poste 77440 Congis-sur-Thérouanne,yes,plain-pied,"Mo-Th 09:00-12:00,14:00-17:30; Fr 09:00-12:00,14:00-19:00; Sa 09:00-12:00",77126,6e98301f-47da-4f7a-a4e3-4d59f07d04a8,way/115410479
mairie,Mairie - Coubert,,Mairie de Coubert,+33 1 64 06 71 20,http://www.coubert.fr,contact@coubert.fr,21770127500018,2.696578,48.6715,  17 rue Aristide-Briand 77170 Coubert,yes,plain-pied,"Mo 11:00-12:30,15:00-18:00; Tu 15:00-18:00; We 11:00-12:30,15:00-18:00; Th 15:00-18:00; Fr 11:00-12:30,15:00-18:00; Sa 09:00-12:00",77127,ab91018c-1b66-43bc-a265-300ad21754d0,way/176261421
mairie,Mairie - Coubron,,Mairie de Coubron,+33 1 43 88 51 45,http://www.coubron.fr,,21930015900015,2.576869,48.915764,  133 rue Jean-Jaurès 93470 Coubron,,ascenseur par l'arrière de la mairie,,93015,4cd09b6e-4830-4e66-9557-475211532082,way/145232333
mairie,Mairie - Couilly-Pont-aux-Dames,,Mairie de Couilly-Pont-aux-Dames,+33 1 60 04 02 24,http://www.couillypontauxdames.fr,mairie@couillypontauxdames.fr,21770128300012,2.86022996902,48.8843002319,  46 rue Eugène-Léger 77860 Couilly-Pont-aux-Dames,yes,plain-pied,"Mo-Tu 09:15-11:30,13:45-17:30; We 09:00-11:30; Th 09:00-11:30,13:45-17:30; Fr 09:00-11:30,13:45-18:30; Sa 09:00-11:30",77128,f9381b10-ced1-45df-88c5-9077233d93d4,node/4005783167
mairie,Mairie - Coulombs-en-Valois,,Mairie de Coulombs-en-Valois,+33 1 64 35 60 23,http://www.coulombs-en-valois.fr,mairie.coulombs-en-valois@laposte.net,21770129100015,3.12598991394,49.0682983398,  2 rue de l'Église 77840 Coulombs-en-Valois,no,,Mo 08:30-13:00; We 09:00-12:00; Fr 13:30-19:00,77129,288fd5e7-873d-42a6-ba46-56762cdf2dce,way/115412269
mairie,Mairie - Coulommes,,Mairie de Coulommes,+33 1 60 25 72 32,http://www.coulommes.fr,mairiedecoulommes@orange.fr,21770130900015,2.93208,48.891363,  2 place de l'Église 77580 Coulommes,yes,rampe et ascenseur,Mo-Tu 15:00-17:00; Th 17:00-19:00; Sa 09:00-12:00,77130,2f709a33-625c-418d-8c20-491f843bff25,way/289919375
mairie,Mairie - Coulommiers,,Mairie de Coulommiers,+33 1 64 75 80 00,https://www.coulommiers.fr/,communications@coulommiers.fr,21770131700018,3.084258,48.812161,  13 rue du Général-de-Gaulle 77120 Coulommiers,yes,,"Mo-Fr 08:30-12:00,13:30-17:30",77131,5f952b0c-efbb-46f3-bc56-8eb98bb0eb41,way/115169579
mairie,Mairie - Coupvray,,Mairie de Coupvray,+33 1 64 63 43 00,http://www.coupvray.fr,mairie@coupvray.fr,21770132500011,2.79327011108,48.8917007446,  Place de la Mairie 77700 Coupvray,yes,plain-pied,"Mo-We 08:30-12:00,14:00-18:00; Th 08:30-12:00; Fr 08:30-12:00,14:00-18:00; Sa 09:00-12:00",77132,da471c92-b13a-492f-a763-b9f1fe5e158f,way/373765357
mairie,Mairie - Courcelles-en-Bassée,,Mairie de Courcelles-en-Bassée,+33 1 60 96 70 89,,courcelles77126@gmx.fr,21770133300015,3.055812,48.409881,  9 rue Grande 77126 Courcelles-en-Bassée,yes,,Mo 14:00-17:00; Fr 14:00-17:00,77133,fcf42dbc-05ae-49c0-99e3-e69a78e6ed56,way/278798502
mairie,Mairie - Courchamp,,Mairie de Courchamp,+33 1 64 01 00 29,,mairie.courchamp@laposte.net,21770134100018,3.285651,48.634975,  Rue de la Mairie 77560 Courchamp,yes,,Tu 15:00-18:00; Fr 09:00-12:00,77134,7e6546b5-4ee7-4b6f-ba98-480b254e371c,node/4798916939
mairie,Mairie - Courpalay,,Mairie de Courpalay,+33 1 64 25 64 40,http://www.courpalay.fr,mairie@courpalay.fr,21770135800012,2.959744,48.648706,  2 bis rue de Champrenard 77540 Courpalay,yes,plain-pied,"Mo 08:30-12:00; Tu 08:30-12:00,14:00-17:00; We 08:30-12:00; Th 08:30-12:00,14:00-17:00; Fr 08:00-12:00",77135,7f228002-6f21-4984-9577-80a1ed9b0a4f,way/227533794
mairie,Mairie - Courquetaine,,Mairie de Courquetaine,+33 1 64 07 63 53,http://www.courquetaine.info,mairie.courquetaine@wanadoo.fr,21770535900016,2.74530529976,48.6780264115,  Place de l'Église 77390 Courquetaine,yes,plain-pied,Mo 10:30-12:30; Th 17:30-19:00,77136,872000bb-6e59-4405-8c57-6431eb417c39,way/149735977
mairie,Mairie - Courtacon,,Mairie de Courtacon,+33 1 64 01 02 66,,mcourtacon@wanadoo.fr,21770137400019,3.2923810482,48.6974372864,  1 rue de l'Église 77560 Courtacon,yes,,Mo 15:00-16:00; Fr 17:30-18:30,77137,fe698dc3-d6e3-4204-84c9-7b4844a1e7e5,node/4798915559
mairie,Mairie - Courtomer,,Mairie de Courtomer,+33 1 64 06 92 67,http://www.courtomer.fr,mairie.courtomer@wanadoo.fr,21770138200012,2.86980009079,48.6547012329,  Place de l'Église 77390 Courtomer,yes,plain-pied,Tu 09:30-11:30; Th 09:30-11:30; Sa 09:30-11:30,77138,5240ae74-56a4-41c1-9bdc-2e5c87bdea2d,way/113373072
mairie,Mairie - Courtry,,Mairie de Courtry,+33 1 64 26 60 00,http://www.ville-courtry.fr,mairie@ville-courtry.fr,21770139000015,2.60484004021,48.9187011719,  52 rue du Général-Leclerc 77181 Courtry,yes,plain-pied,"Mo 12:00-13:30,13:30-17:30; Tu 13:30-17:30; We-Fr 09:00-12:00,13:30-17:30; Sa 09:30-12:00",77139,5a760268-5c29-40fe-98fc-f1c5aba76f2f,way/104065500
mairie,Mairie - Coutençon,,Mairie de Coutençon,+33 1 64 08 50 44,,mairie.coutencon@wanadoo.fr,21770140800015,2.995194,48.471477,  Place de l'Église 77154 Coutençon,yes,plain-pied,Mo 17:00-19:00; We 10:00-12:00; Fr 10:00-12:00,77140,a8a30176-1033-4e0a-a1f4-c99758a381e1,way/309411171
mairie,Mairie - Coutevroult,,Mairie de Coutevroult,+33 1 60 04 53 63,http://www.mairie-coutevroult.fr,coutevroult@wanadoo.fr,21770141600018,2.8533000946,48.8628997803,  15 rue de la Brosse 77580 Coutevroult,yes,ascenseur,"Mo-Tu 08:30-12:00; We 08:30-12:00,13:00-16:00; Fr 08:30-12:00",77141,4af731eb-1317-41e9-85ae-9ce8a3db15bd,node/4798915894
mairie,Mairie - Crisenoy,,Mairie de Crisenoy,+33 1 64 38 83 22,http://www.crisenoy.fr,mairiedecrisenoy@wanadoo.fr,21770145700012,2.740479,48.595695,  18 rue des Noyers 77390 Crisenoy,yes,,"Tu 13:00-17:00; We 09:00-12:00; Fr 09:00-12:00,15:00-17:00; Sa 09:00-12:00",77145,a465edd3-2a63-45d9-8b6b-e28f1cffdaba,node/4798915620
mairie,Mairie - Croissy-Beaubourg,,Mairie de Croissy-Beaubourg,+33 1 64 62 78 78,http://www.croissy-beaubourg.fr,mairie@croissy-beaubourg.fr,21770146500015,2.65959000587,48.8278007507,  30 rue de Paris 77183 Croissy-Beaubourg,yes,,"Mo-Fr 09:00-12:00,14:00-18:00; Sa 09:00-12:00",77146,5563c925-180f-4390-8a55-ed96b310f8d4,way/115417625
mairie,Mairie - Crouy-sur-Ourcq,,Mairie de Crouy-sur-Ourcq,+33 1 64 35 61 38,http://www.crouy-sur-ourcq.fr,accueil@crouy-sur-ourcq.fr,21770148100012,3.07445,49.090798,  Place de la Mairie 77840 Crouy-sur-Ourcq,yes,rampe,"Mo-We 09:00-12:00,13:30-17:30; Th 09:00-12:00; Fr 13:30-18:00; Sa 09:00-12:00",77148,293cf18f-96aa-40f8-b58e-45881f8fd1f3,way/115413657
mairie,Mairie - Crèvecoeur-en-Brie,,Mairie de Crèvecoeur-en-Brie,+33 1 64 07 41 28,http://www.crevecoeur-en-brie.fr,mairie@crevecoeur-en-brie.fr,21770144000018,2.9093298912,48.7550010681,  7 rue de la Forêt-de-Crécy 77610 Crèvecoeur-en-Brie,no,,Mo-Tu 09:00-15:00; Th 09:00-12:00; Fr 09:00-15:00; Sa 09:00-12:00,77144,20661432-3adc-489f-b92d-4af9413eb26e,way/149746662
mairie,Mairie - Crécy-la-Chapelle,,Mairie de Crécy-la-Chapelle,+33 1 64 63 94 36,http://www.crecylachapelle.eu,commune@crecylachapelle.eu,21770142400012,2.908334,48.858204,  Place Michel-Houel 77580 Crécy-la-Chapelle,yes,plain-pied par l'arrière du bâtiment,"Mo-Tu 09:00-12:00,14:00-17:00; We 09:00-12:00; Th-Fr 09:00-12:00,14:00-17:00; Sa 09:00-12:00",77142,90d64d41-b994-4750-b66c-be667f1cfc46,way/373781980
mairie,Mairie - Crégy-lès-Meaux,,Mairie de Crégy-lès-Meaux,+33 1 60 23 48 88,http://www.cregylesmeaux.fr,mairie@cregylesmeaux.fr,21770143200015,2.87778997421,48.9780006409,  28 rue Jean-Jaurès 77124 Crégy-lès-Meaux,yes,rampe,"Mo-Fr 08:30-12:00,13:30-17:00; Sa 10:00-12:00",77143,48cb2258-f7a9-41de-bc25-6b829c98de69,node/11423198400
mairie,Mairie - Cuisy,,Mairie de Cuisy,+33 1 64 36 22 69,,mairie.cuisy@wanadoo.fr,21770150700014,2.772578,49.019927,  Rue du Bourget 77165 Cuisy,yes,,"Mo 09:30-13:00; We 09:30-13:00; Fr 09:30-13:00,14:00-17:30; Sa 09:00-11:00",77150,c3c71d8e-6f06-4398-aaad-6328ecef1a23,node/4798916223
mairie,Mairie - Cély,,Mairie de Cély,+33 1 64 14 24 34,http://www.cely.fr,commune.cely@wanadoo.fr,21770065700018,2.530305,48.459479,  15 rue de la Mairie 77930 Cély,yes,rampe,"Mo-We 09:00-12:00,13:30-17:00; Fr 09:00-12:00,13:30-15:00",77065,25d5a9d0-78d8-40f8-b3bc-811b7ccf4779,node/4798916929
mairie,Mairie - Dagny,,Mairie de Dagny,+33 1 64 75 41 08,https://www.dagny77.fr,mairie.de.dagny@wanadoo.fr,21770151500017,3.17059,48.717578,  2 Grande rue 77320 Dagny,no,,"Tu 09:30-11:30,16:00-18:00; Th 09:30-11:30",77151,3290accd-e09e-4031-9f74-669af8aba4e4,way/149749238
mairie,Mairie - Dammarie-les-Lys,,Mairie de Dammarie-les-Lys,+33 1 79 76 96 00,http://www.mairie-dammarie-les-lys.fr,info@mairie-dammarie-les-lys.fr,21770152300011,2.63442397118,48.514793396,Hôtel de Ville  26 rue Charles-de-Gaulle 77190 Dammarie-les-Lys,yes,,"Mo-Fr 08:30-12:15,13:45-17:30",77152,95b408b7-4c73-4e9c-b8ff-9e8b2103d6d6,way/113080493
mairie,Mairie - Dammartin-en-Goële,,Mairie de Dammartin-en-Goële,+33 1 60 03 85 50,http://www.dammartin-en-goele.fr,contact@dammartin-en-goele.fr,21770153100014,2.67855000496,49.0540008545,  79 rue du Général-de-Gaulle 77230 Dammartin-en-Goële,yes,ascenseur sur le côté du bâtiment,"Mo 13:30-17:00; Tu 08:30-12:00,13:30-17:00; We-Th 08:30-12:00,13:30-19:00; Fr 08:30-12:00,13:30-17:00",77153,148e6580-1011-4bed-94e0-05f30ed0c78e,way/147977620
mairie,Mairie - Dammartin-sur-Tigeaux,,Mairie de Dammartin-sur-Tigeaux,+33 1 64 04 32 72,https://www.dammartinsurtigeaux.net/,mairie@dammartinsurtigeaux.net,21770154900016,2.916826,48.818531,  Grande rue 77163 Dammartin-sur-Tigeaux,yes,rampe,Mo-Fr 08:30-12:00; Sa 09:00-12:00,77154,03836c51-8833-4c57-8d42-9d6476f58ab2,node/9309443751
mairie,Mairie - Dampmart,,Mairie de Dampmart,+33 1 64 30 13 45,http://www.dampmart.fr,mairie@dampmart.fr,21770155600011,2.7362607,48.8854894,  7 rue du Château 77400 Dampmart,yes,rampe,"Mo-Tu 09:00-12:00,14:30-17:15; Th 09:00-12:00,14:30-18:30; Fr 09:00-12:00,14:30-17:15; Sa 09:00-12:30",77155,b08c444c-4757-40df-b02c-0b819a0db5a8,node/4798915914
mairie,Mairie - Darvault,,Mairie de Darvault,+33 1 64 78 53 10,http://www.mairie-darvault.fr,mairie@mairie-darvault.fr,21770156400015,2.7355445,48.2710033,  8 rue de la Mairie 77140 Darvault,yes,,Mo-Tu 16:00-18:00; We 14:00-18:00; Th 16:00-18:00; Fr 10:30-12:30,77156,ddd39645-8010-4c74-af22-43cb8590cda6,node/661708899
mairie,Mairie - Dembeni,,Mairie de Dembeni,+262 2 69 62 15 81,https://ville-dembeni.fr/,mairie-de-dembeni@wanadoo.fr,20000878700018,45.1857186,-12.8423994,  Place de la Mairie 97660 Dembeni,yes,,"Mo-Fr 07:00-12:00,12:52-15:30",97607,523f9d2d-d269-4717-b230-8441ad063022,node/9331359740
mairie,Mairie - Deshaies,,Mairie de Deshaies,+590 5 90 28 44 44,https://www.villededeshaies.fr,secretariat.deshaies@hotmail.fr,21971111600018,-61.7897365,16.3108369,  238 boulevard des Poissonniers 97126 Deshaies,yes,,Mo-Fr 07:30-14:30,97111,7d52a576-c119-48ae-be06-5360dc56f098,way/41767073
mairie,Mairie - Dhuisy,,Mairie de Dhuisy,+33 1 64 35 66 76,,mairie.dhuisy@laposte.net,21770157200018,3.15881991386,49.0401992798,  Place de la Mairie 77440 Dhuisy,no,,Fr 14:00-18:00,77157,2db9bd73-d9ce-447b-9696-eefd5c3de0e7,node/4798915861
mairie,Mairie - Diant,,Mairie de Diant,+33 1 64 31 94 62,http://www.diant.fr,mairie.diant@wanadoo.fr,21770158000011,2.99271988869,48.2818984985,  Grande rue 77940 Diant,yes,rampe d'accès,Mo 09:00-12:00; Tu 15:00-19:00; We 14:00-17:00; Fr 09:00-12:00,77158,626ae5de-ac21-4d4a-84f3-ec80b6044ba9,way/278796201
mairie,Mairie - Donnemarie-Dontilly,,Mairie de Donnemarie-Dontilly,+33 1 64 60 21 80,http://www.donnemarie-dontilly.fr,mairie-donnemarie@wanadoo.fr,21770159800013,3.1324602,48.4784883,  Rue Cottereau 77520 Donnemarie-Dontilly,yes,plain-pied,"Mo-Fr 09:00-12:00,15:00-18:00; Sa 09:00-12:00",77159,38ecd2a7-231f-4235-867a-efcbf9ce8744,way/278607388
mairie,Mairie - Dormelles,,Mairie de Dormelles,+33 1 60 96 65 01,http://www.dormelles.fr,mairie.dormelles@laposte.net,21770161400018,2.9028065,48.3153576,  14 rue de la Mairie 77130 Dormelles,yes,,Tu 09:00-12:00; Th-Fr 09:00-12:00,77161,c60406e7-d718-4b14-99f9-c5102ef2a0b4,way/240612072
mairie,Mairie - Doue,,Mairie de Doue,+33 1 64 20 99 94,http://www.doue.fr,mairie.doue@orange.fr,21770162200011,3.16391992569,48.8655014038,  1 bis rue Champenois 77510 Doue,no,,Mo 14:15-17:15; Th 09:15-12:15; Fr 14:15-17:15,77162,59a7c319-91dc-420d-9a53-b845577c0e31,node/4798915906
mairie,Mairie - Douy-la-Ramée,,Mairie de Douy-la-Ramée,+33 1 64 36 67 75,,mairie.douylaramee@gmail.com,21770163000014,2.88163995743,49.067199707,  2 rue du Sac 77139 Douy-la-Ramée,yes,,Mo 09:00-12:00; We 09:00-12:00; Th 18:00-20:00,77163,a752d301-0fce-4d6e-87e9-3b12ecf6eacd,way/143690357
mairie,Mairie - Drancy,,Mairie de Drancy,+33 1 48 96 50 00,https://www.drancy.fr,mairie@drancy.fr,21930029000018,2.49926996231,48.9341011047,  Place de l'Hôtel-de-Ville 93700 Drancy,yes,plain-pied,Mo-We 09:00-17:30; Th 09:00-19:30; Fr 09:00-17:30; Sa 09:00-12:00,93029,617abe4b-a3ab-41a1-9fc9-b76c030f46c3,relation/6866540
mairie,Mairie - Ducos,,Mairie de Ducos,+596 5 96 77 18 18,,courrier@mairie-ducos.fr,21972207100012,-60.9749579429626,14.5750690932533,  1 rue Zizine-et-des-Étages 97224 Ducos,yes,,"Mo-Tu 07:30-12:30,14:00-17:30; We-Fr 07:30-13:30",97207,43efc528-f165-40ff-838c-392f2a6155bc,way/47053205
mairie,Mairie - Dugny,,Mairie de Dugny,+33 1 49 92 66 66,https://ville-dugny.fr/,,21930030800018,2.417557,48.955423,  1 rue de la Résistance 93440 Dugny,yes,plain-pied,"Mo-We 08:30-12:00,13:30-17:30; Th 08:30-12:00; Fr 08:30-12:00,13:30-17:30",93030,ab1abcbe-ed56-42a2-8af5-9ab277579e03,node/4590640043
mairie,Mairie - Dzaoudzi,,Mairie de Dzaoudzi,+262 2 69 60 11 75,http://djabir.abdallah.free.fr/,mairie@dzaoudzi-labattoir.fr,20000879500011,45.270372,-12.7878822,  Rue de l'Hôtel-de-Ville 97610 Dzaoudzi-Labattoir,yes,,"Mo-Th 07:30-12:00,13:00-16:00; Fr 07:00-12:00",97608,2c6a8359-fe57-4742-ac70-89c8c68937ba,node/1871359412
mairie,Mairie - Entre-Deux,,Mairie d'Entre-Deux,+262 2 62 39 50 50,http://www.village-entredeux.fr,communication@entredeux.re,21974003200012,55.4699924,-21.2488961,  2 rue Fortuné-Hoarau 97414 Entre-Deux,yes,,Mo-Th 07:45-16:15; Fr 07:45-15:00,97403,84cf1df4-cd43-4984-82fb-c967b9078194,way/69579763
mairie,Mairie - Esbly,,Mairie d'Esbly,+33 1 64 63 44 00,http://www.esbly.org,ville.esbly@mairie-esbly.fr,21770171300018,2.81315994263,48.9006996155,  7 rue Victor-Hugo 77450 Esbly,yes,rez-de-chaussée,"Mo-Fr 08:30-12:00,13:30-16:45; Sa 08:30-12:00",77171,61e039ad-fc83-4465-ab45-e96f134af833,node/4798916936
mairie,Mairie - Esmans,,Mairie d'Esmans,+33 1 64 32 15 53,http://www.esmans.fr,mairie.de.esmans@orange.fr,21770172100011,2.9758573,48.3480623,  16 Grande rue 77940 Esmans,yes,ascenseur,"Mo 15:30-17:30; Tu 10:30-12:30; We 10:30-12:30,15:30-17:30; Fr 10:30-12:30; Sa 10:00-12:00",77172,53b1a95d-88be-489e-bf93-b1537fbf940c,way/278690107
mairie,Mairie - Everly,,Mairie d'Everly,+33 1 64 01 75 87,http://everly.fr,mairie.everly@wanadoo.fr,21770174700016,3.25203990936,48.4665985107,  16 rue de la Mairie 77157 Everly,yes,plain-pied,Mo-Tu 08:30-12:00; Th-Fr 08:30-12:00; Sa 09:00-12:00,77174,317c8b8e-6883-4026-8524-ed7aac1bd0cb,node/2744264832
mairie,Mairie - Faremoutiers,,Mairie de Faremoutiers,+33 1 64 04 20 04,http://www.faremoutiers.org,accueil@faremoutiers.fr,21770176200015,3.00276994705,48.8050003052,  Avenue Victor-Massoul 77515 Faremoutiers,yes,rez-de-chaussée,Mo-Sa 09:00-12:00,77176,dd9d6130-e817-4ed3-a834-9afef18ee504,node/4798916937
mairie,Mairie - Favières,,Mairie de Favières,+33 1 64 07 02 07,http://www.favieres77.fr,contact@favieres77.fr,21770177000018,2.7742967,48.7625637,  5 rue de la Brie 77220 Favières,no,contacter l'accueil avant de vous déplacer,"Mo 15:00-18:00; We 10:00-12:00,15:00-18:00; Th-Fr 15:00-18:00; Sa 10:00-12:00",77177,64dd3e60-2b3a-4488-be92-bd8878bda0e8,way/149772796
mairie,Mairie - Faÿ-lès-Nemours,,Mairie de Faÿ-lès-Nemours,+33 1 64 28 10 76,http://www.fay-les-nemours.fr,mairie-de-fay-les-nemours@wanadoo.fr,21770178800010,2.673781,48.2309259,  30 rue Grande 77167 Faÿ-lès-Nemours,yes,,Mo-Tu 16:30-18:00; Th 10:30-12:00; Fr 16:30-18:00,77178,6051ae12-5780-45f9-9827-e110100c1bf6,node/4798913810
mairie,Mairie - Ferrières-en-Brie,,Mairie de Ferrières-en-Brie,+33 1 64 66 31 14,http://www.ferrieresenbrie.fr,mairie@ferrieresenbrie.fr,21770181200018,2.7045794,48.8218495,  24 rue Jean-Jaurès 77164 Ferrières-en-Brie,yes,ascenseur,"Mo-Tu 08:45-12:00,14:00-17:30; We 08:45-12:00; Th-Fr 08:45-12:00,14:00-17:30; Sa 08:45-12:00",77181,7ac72be3-4757-479b-8568-55bce14a11db,way/116082084
mairie,Mairie - Flagy,,Mairie de Flagy,+33 1 60 96 64 18,http://www.flagy.fr,mairie-flagy@wanadoo.fr,21770184600016,2.9220058,48.3123744,  Place de l'Église 77940 Flagy,,,Tu 16:00-18:30; Th 16:00-18:00,77184,a495bc42-42b3-43b7-a9b0-447469ced9ee,way/278781801
mairie,Mairie - Fleury-en-Bière,,Mairie de Fleury-en-Bière,+33 1 64 38 02 20,http://www.fleuryenbiere.fr,secretariat@fleuryenbiere.fr,21770185300012,2.549046,48.4482997,  6 rue du Cardinal-Richelieu 77930 Fleury-en-Bière,limited,"sonnette, accessible dans un local annexe","Tu 10:00-12:00,14:00-17:00; We-Sa 10:00-12:00",77185,cad22c37-1e4f-4d83-90ad-2071a9d40173,node/4798915877
mairie,Mairie - Fonds-Saint-Denis,,Mairie de Fonds-Saint-Denis,+596 5 96 55 88 88,,mairie.fondssaint-denis@wanadoo.fr,21972208900014,-61.1321528,14.7384613,  Le Bourg 97250 Fonds-Saint-Denis,yes,,"Mo 07:30-13:30,14:30-17:00; Tu-We 07:30-13:30; Th 07:30-13:30,14:30-17:00; Fr 07:30-13:30",97208,6868f0c7-f088-4e29-963e-6173f0baa8dd,way/125364972
mairie,Mairie - Fontaine-Fourches,,Mairie de Fontaine-Fourches,+33 1 64 01 84 02,http://www.fontaine-fourches.com,mairie.fontaine-fourches@wanadoo.fr,21770187900017,3.39652991295,48.4118003845,  23 rue Saint-Martin 77480 Fontaine-Fourches,yes,plain-pied,Tu 10:00-12:00; Th 16:00-18:30,77187,7d4548b5-7e2c-494c-9e76-bab0ef31a668,way/222392786
mairie,Mairie - Fontaine-le-Port,,Mairie de Fontaine-le-Port,+33 1 64 38 30 52,http://www.ville-fontaineleport.fr,mairie-fontaineleport@wanadoo.fr,21770188700010,2.75745010376,48.4868011475,  3 rue du Général-Roux 77590 Fontaine-le-Port,no,,"Tu 09:00-12:00,18:00-19:00; We 09:00-12:00; Fr 09:00-12:00",77188,00007e4d-264c-43a0-b0b7-7f3b7dd995ab,way/113386275
mairie,Mairie - Fontainebleau,,Mairie de Fontainebleau,+33 1 60 74 64 64,https://www.fontainebleau.fr/,standard@fontainebleau.fr,21770186100015,2.701147,48.404831,  40 rue Grande 77300 Fontainebleau,yes,,"Mo 13:30-17:30; Tu-Fr 08:30-12:15,13:30-17:30; Sa 08:30-12:30",77186,3a0e0817-ddb1-4747-8e11-2d1b060fce25,way/289357566
mairie,Mairie - Fontains,,Mairie de Fontains,+33 1 64 08 07 76,,mairie.de.fontains@wanadoo.fr,21770190300015,3.00110006332,48.5285987854,  2 rue de la Grelotterie 77370 Fontains,yes,rampe,Mo-Tu 13:30-17:00; We 09:00-12:00; Th 13:30-17:00; Sa 10:30-12:00,77190,8f5ff3f2-515b-4ee7-8875-940fbb8414ac,node/9309417812
mairie,Mairie - Fontenailles,,Mairie de Fontenailles,+33 1 64 08 40 17,http://www.mairiefontenailles.fr,mairie.fontenailles@wanadoo.fr,21770191100018,2.95240998268,48.5540008545,  63 rue Maurice-Wanlin 77370 Fontenailles,yes,,Mo 15:30-17:30; Tu 09:00-11:00; We 15:30-17:30; Th 09:00-11:00; Fr 15:30-17:30; Sa 09:00-11:00,77191,8944bf34-dd64-447a-86b6-8b11b424c959,way/201826959
mairie,Mairie - Fontenay-Trésigny,,Mairie de Fontenay-Trésigny,+33 1 64 25 90 67,http://www.fontenay-tresigny.fr,mairie@fontenay-tresigny.fr,21770192900010,2.866546,48.707066,  26 avenue du Général-de-Gaulle 77610 Fontenay-Trésigny,yes,rampe,"Mo-Fr 08:30-11:30,13:30-17:30; Sa 09:00-12:00",77192,d9af98f8-0206-48b3-9989-e6cba03078aa,way/115158500
mairie,Mairie - Forfry,,Mairie de Forfry,+33 1 60 01 59 36,http://www.mairie-forfry.fr,mairie.forfry@wanadoo.fr,21770193700013,2.84786009789,49.0563011169,  Rue des Francs-Bourgeois 77165 Forfry,yes,rampe,Mo 14:00-18:00; Th-Fr 14:00-18:00,77193,d78c4284-ce75-4e58-90d1-bc3cb46cf6cd,node/4798915617
mairie,Mairie - Forges,,Mairie de Forges,+33 1 60 73 55 99,http://www.mairie-forges-77.fr,mairie-de-forges-77@orange.fr,21770194500016,2.96140003204,48.4192008972,  Place de la Mairie 77130 Forges,yes,,Tu 15:30-19:00; Th 15:30-19:00,77194,71829fd8-4ab9-43e7-b5bd-853baa4f8234,node/4267664794
mairie,Mairie - Fouju,,Mairie de Fouju,+33 1 60 66 90 82,http://www.fouju.fr,foujumai@orange.fr,21770195200012,2.77712011337,48.5859985352,  269 rue du Général-de-Gaulle 77390 Fouju,yes,,Mo 17:00-19:00; We 09:00-11:00; Th 17:00-19:00,77195,c9f2680d-163e-4fa9-939c-103688886eac,node/4798915898
mairie,Mairie - Fresnes-sur-Marne,,Mairie de Fresnes-sur-Marne,+33 1 60 26 03 81,http://www.fresnes-sur-marne.fr,mairie@fresnes-sur-marne.fr,21770196000015,2.741518,48.937633,  2 rue de l'Église 77410 Fresnes-sur-Marne,yes,,Mo 14:00-17:30; We 09:00-11:30; Th-Fr 14:00-17:30; Sa 09:00-11:30,77196,0ef559e8-8173-441c-9b3d-8243bddded99,way/386806084
mairie,Mairie - Fromont,,Mairie de Fromont,+33 1 64 24 07 51,,mairie.fromont@laposte.net,21770198600010,2.52281999588,48.2389984131,  1 place de l'Église 77760 Fromont,yes,plain-pied,Tu 09:00-11:30; Fr 17:00-19:00,77198,b9f3d7c4-08f9-48e0-a094-1a2a48673e47,node/3878103417
mairie,Mairie - Frétoy,,Mairie de Frétoy,+33 1 64 01 04 99,,mairiefretoy@orange.fr,21770197800017,3.1974772,48.7045788,  8 rue du Moutier 77320 Frétoy,yes,,Mo 17:00-19:00; Th 14:00-17:00,77197,51d2cf34-10f3-41de-a2ec-e5fe3558ebe7,node/4798916228
mairie,Mairie - Fublaines,,Mairie de Fublaines,+33 1 60 25 80 00,http://www.fublaines.fr,mairie.fublaines@wanadoo.fr,21770199400014,2.93754005432,48.9375,  24 rue Alphonse-Cabon 77470 Fublaines,yes,rampe,Mo-Tu 14:00-18:00; Th-Fr 14:00-19:00; Sa 09:30-12:00,77199,9d5fb890-a74b-4a8b-9a2f-01f44543bd6c,node/4798915546
mairie,Mairie - Féricy,,Mairie de Féricy,+33 1 64 23 85 26,http://www.fericy.fr,mairie.fericy@wanadoo.fr,21770179600047,2.79973,48.45845,Domaine de la Salle  1 route de Barbeau 77133 Féricy,limited,téléphoner avant de se déplacer,Tu-Sa 09:00-12:00,77179,fae7eb42-f196-45f4-9513-c0452d363186,node/4798915603
mairie,Mairie - Férolles-Attilly,,Mairie de Férolles-Attilly,+33 1 60 02 21 48,http://www.ferolles-attilly.fr,mairie@ferolles-attilly.fr,21770180400015,2.62912011147,48.7321014404,  45 Grande rue 77150 Férolles-Attilly,yes,,"Mo-Fr 08:30-12:30,14:00-17:30; Sa 09:00-12:00",77180,9f2ff84d-fa48-44b3-95e4-3d4d1e375f37,node/1863066949
mairie,Mairie - Garentreville,,Mairie de Garentreville,+33 1 64 28 71 43,,mairie.garentreville@wanadoo.fr,21770200000019,2.54899406433,48.2361755371,  7 rue de l'École 77890 Garentreville,yes,plain-pied,Mo 09:00-17:00; Tu 09:00-18:30; Th 09:00-17:00; Fr 09:00-12:00,77200,a0075470-2ac6-4f9c-bf8b-59760c01e531,node/3878093991
mairie,Mairie - Gastins,,Mairie de Gastins,+33 1 64 08 08 35,http://mairie-gastins.com,aff-generales@gastins.fr,21770201800011,3.0201535,48.6276088,  1 place de l'Église 77370 Gastins,yes,plain-pied,Mo-Tu 13:30-17:00; Th-Fr 13:30-17:30; Sa 10:30-12:00,77201,5ec7ddc4-679d-43a4-8339-2ad71b592170,way/219079220
mairie,Mairie - Germigny-l'Évêque,,Mairie de Germigny-l'Évêque,+33 1 64 33 01 89,http://www.germigny-leveque.org,mairie.germigny-leveque@wanadoo.fr,21770203400018,2.94409990311,48.9921989441,  7 allée de l'Église 77910 Germigny-l'Évêque,yes,plain-pied,Mo 16:00-18:30; We 09:00-12:00; Fr 16:00-18:30; Sa 10:00-12:00,77203,9abada1d-d16e-4db6-99da-3a01b8182d23,node/4798916235
mairie,Mairie - Germigny-sous-Coulombs,,Mairie de Germigny-sous-Coulombs,+33 1 64 35 67 57,,mairie.germigny-sous-coulombs@laposte.net,21770204200011,3.158009,49.064373,  Place de l'Église 77840 Germigny-sous-Coulombs,yes,,Tu 17:00-18:00; Fr 17:00-18:00,77204,d86293c7-8da4-4b13-b12c-41a186c4d4cb,way/150376631
mairie,Mairie - Gesvres-le-Chapitre,,Mairie de Gesvres-le-Chapitre,+33 1 60 01 04 15,,mairiegesvreslechapitre@orange.fr,21770205900015,2.8510391,49.0440739,  5 rue André-Maurice 77165 Gesvres-le-Chapitre,yes,,Mo 11:00-12:00; Fr 18:00-19:00,77205,c7649b60-5612-4764-a2c3-b9f80996cae3,node/4798915913
mairie,Mairie - Giremoutiers,,Mairie de Giremoutiers,+33 1 64 75 10 14,,giremoutiers@wanadoo.fr,21770206700018,3.02891,48.842949,  8 rue de Corbeville 77120 Giremoutiers,yes,,Mo 09:00-12:00,77206,035a56e3-e273-4f07-afcc-5f5257e409dd,way/931765011
mairie,Mairie - Gironville,,Mairie de Gironville,+33 1 60 55 11 27,https://mairiedegironville77.fr,mairie.gironville77@orange.fr,21770207500011,2.528706,48.185882,  1 rue Beaugé 77890 Gironville,yes,plain-pied,"Tu 14:00-18:30; Fr 10:00-12:00,14:00-17:00",77207,d38c7ce6-b84a-46a8-8b7f-183b9b04c9fd,node/3878136795
mairie,Mairie - Gouaix,,Mairie de Gouaix,+33 1 64 00 70 04,http://www.gouaix.fr,mairie@gouaix.fr,21770208300015,3.29396009445,48.479598999,  14 avenue de la Gare 77114 Gouaix,yes,rampe,Tu-Sa 09:00-12:00,77208,e4dc41d0-7612-4442-9e29-a0761c4e8346,way/249137902
mairie,Mairie - Gourbeyre,,Mairie de Gourbeyre,+590 5 90 99 08 15,http://www.ville-gourbeyre.fr,contact@ville-gourbeyre.fr,21971109000015,-61.6830286,15.9897804,  Avenue Louis-Philippe-Lonqueteau 97113 Gourbeyre,yes,,"Mo-Tu 07:30-12:30,14:00-17:00; We 07:30-13:00; Th 07:30-12:30,14:00-17:00; Fr 07:30-13:00",97109,1d703b2c-8592-4393-be83-e44e67701314,way/300276061
mairie,Mairie - Gournay-sur-Marne,,Mairie de Gournay-sur-Marne,+33 1 43 05 06 41,http://www.ville-gournay-sur-marne.fr,contact@gournay-sur-marne.fr,21930033200018,2.573179,48.863521,  10 avenue du Maréchal-Foch 93460 Gournay-sur-Marne,yes,plain-pied,"Mo-Fr 08:30-12:00,13:30-17:30",93033,204400b3-9717-4ef1-bec0-181dffeac4b6,node/796694179
mairie,Mairie - Gouvernes,,Mairie de Gouvernes,+33 1 64 30 12 09,,contact@gouvernes.fr,21770209100018,2.6952116423278927,48.8613242008703,1 place de la Mairie  Rue Saint-Germain 77400 Gouvernes,yes,rampe,"Mo-Tu 09:30-12:00,13:30-18:15; Th-Fr 09:30-12:00,13:30-18:15; Sa 09:00-11:45",77209,7460d88e-221f-4709-b70a-de0b53f0381e,way/886737385
mairie,Mairie - Goyave,,Mairie de Goyave,+590 5 90 95 91 11,https://villedegoyave.fr/fr/,contact@villedegoyave.fr,21971114000018,-61.5753973,16.1335034,  Rue des Écoles 97128 Goyave,yes,,"Mo-Tu 07:30-12:30,14:00-17:00; We 07:30-13:00; Th 07:30-12:30,14:00-17:00; Fr 07:30-13:00",97114,2f482bd7-9f37-41a0-8291-d12893120a3a,relation/279079
mairie,Mairie - Grand'Rivière,,Mairie de Grand'Rivière,+596 5 96 55 77 77,https://www.grand-riviere.com/,villedegrandriviere97218@orange.fr,21972211300012,-61.1783,14.8731,  71 avenue du Général-de-Gaulle 97218 Grand'Rivière,yes,,"Mo-Tu 07:30-12:30,13:30-17:15; We 07:30-13:30; Th 07:30-12:30,13:30-17:15; Fr 07:30-13:30",97211,bfd68e11-b915-4515-a77d-08461f895280,way/125070748
mairie,Mairie - Grand-Bourg,,Mairie de Grand-Bourg,+590 5 90 97 90 08,https://grand-bourg.fr,secretariat@grand-bourg.fr,21971112400012,-61.2568777,15.9232223,Hôtel de Ville  Place Schoelcher 97112 Grand-Bourg,yes,,"Mo-Tu 08:00-12:30,14:00-17:00; We 08:00-14:15; Th 08:00-12:30,14:00-17:00; Fr 08:00-14:15; Sa 08:00-11:00",97112,a6e80ecb-28d9-4738-bdeb-6023b69134ba,node/11181720162
mairie,Mairie - Grand-Santi,,Mairie de Grand-Santi,+594 5 94 37 41 10,http://www.grandsanti.fr,accueil@grandsanti.fr,21973357300014,-54.38225,4.2507342,Hôtel de Ville  Le bourg 97340 Grand-Santi,no,,"Mo 07:30-13:30; Tu 07:30-13:30,15:00-17:30; We 07:30-13:30; Th 07:30-13:30,15:00-17:30; Fr 07:30-13:30",97357,dc875459-525d-41fd-a2a2-503b9d3e9412,way/208418052
mairie,Mairie - Grandpuits-Bailly-Carrois,,Mairie de Grandpuits-Bailly-Carrois,+33 1 64 08 07 12,http://www.mairie-grandpuits-bailly-carrois.fr,mairie.grandpuits@orange.fr,21770211700011,2.9700494,48.5816661,  7 rue de la Croix-Boissée 77720 Grandpuits-Bailly-Carrois,yes,rampe,Mo-Fr 14:00-17:30,77211,80f07344-db1a-4a80-b940-137d4845f8d5,way/115315327
mairie,Mairie - Gravon,,Mairie de Gravon,+33 1 64 31 30 96,,mairie.gravon@laposte.net,21770212500014,3.1194999218,48.3993988037,  Place de la Mairie 77118 Gravon,yes,,Mo 16:00-19:00; Fr 19:00-20:00,77212,8a7fb59d-7590-4143-b202-9a2e71836782,way/227553683
mairie,Mairie - Gressy,,Mairie de Gressy,+33 1 60 26 11 15,http://www.gressy.fr,commune.gressy@wanadoo.fr,21770214100011,2.659638,48.9585627,  12 avenue du Château 77410 Gressy,no,,"Mo 09:00-12:00,16:00-18:00; We 09:00-12:00; Th-Fr 16:00-18:00",77214,a9db3c0d-e7a8-4283-a314-587dd5c25f54,way/138133077
mairie,Mairie - Gretz-Armainvilliers,,Mairie de Gretz-Armainvilliers,+33 1 64 42 83 00,http://www.gretz-armainvilliers.fr,contact@mairie-gretz.fr,21770215800015,2.73631000519,48.7410011292,  69 rue de Paris 77220 Gretz-Armainvilliers,yes,plain-pied,"Mo-Fr 08:30-12:00,14:00-17:30; Sa 08:30-12:00",77215,673adf26-cc72-4113-b0ea-bf4c292925ee,way/113407850
mairie,Mairie - Grez-sur-Loing,,Mairie de Grez-sur-Loing,+33 1 64 45 95 15,http://www.grezsurloing.fr,mairie@grezsurloing.fr,21770216600018,2.69045996666,48.3152999878,  86 rue Wilson 77880 Grez-sur-Loing,yes,,"Mo-Tu 10:00-12:00,16:00-18:00; Th-Fr 10:00-12:00,16:00-18:00; Sa 10:00-12:00",77216,ee16984c-9ade-4d90-b801-bf4eaac5fed7,way/251725997
mairie,Mairie - Grisy-Suisnes,,Mairie de Grisy-Suisnes,+33 1 64 05 90 03,http://www.grisy-suisnes.fr,accueil@grisy-suisnes.fr,21770217400012,2.665899,48.685025,  Place de la Mairie 77166 Grisy-Suisnes,yes,,"Tu 10:00-12:00,14:00-18:45; We 10:00-12:00,14:00-17:00; Th 10:00-12:00; Fr 10:00-12:00,14:00-17:00; Sa 09:30-12:00",77217,b62ed54a-c147-4a2e-8ab6-44c0a382a140,way/113399255
mairie,Mairie - Grisy-sur-Seine,,Mairie de Grisy-sur-Seine,+33 1 64 01 86 25,,mairie.grisyseine@orange.fr,21770218200015,3.317413,48.437308,  22 Grande rue 77480 Grisy-sur-Seine,limited,il faut sonner et une personne vient pour aider,Mo 13:30-15:30; We 17:00-19:00,77218,fd268ce6-9f58-4c1f-bbd7-1cc06776e230,node/4798915900
mairie,Mairie - Le Gros-Morne,,Mairie du Gros-Morne,+596 5 96 67 50 11,,contact.mairie@ville-grosmorne.fr,21972212100015,-61.004829,14.710188,  2 rue Schoelcher 97213 Gros-Morne,yes,,Mo 07:30-17:30; Tu 07:30-13:30; We 07:30-13:00; Th 07:30-17:30; Fr 07:30-13:00,97212,b14652f2-24b2-414d-902c-607d6450386f,way/178213097
mairie,Mairie - Guercheville,,Mairie de Guercheville,+33 1 64 24 07 76,http://www.guercheville77.fr,guercheville.mairie@wanadoo.fr,21770220800018,2.558947,48.2614664,  58 rue Grande 77760 Guercheville,yes,,Tu 13:00-15:00; Fr 17:30-19:00,77220,7c4a6fd6-b0f4-4340-8dbe-9053f4b77952,node/3878093992
mairie,Mairie - Guermantes,,Mairie de Guermantes,+33 1 60 07 59 12,http://www.guermantes.fr,accueil@guermantes.fr,21770221600011,2.706022,48.854534,  42 avenue des Deux-Châteaux 77600 Guermantes,yes,,"Tu 09:00-12:00,15:00-18:00; We 09:00-12:00; Th 09:00-12:00,15:00-18:00; Sa 09:00-12:00",77221,6d4db8ba-45fa-4655-847a-ae075615b414,way/116090552
mairie,Mairie - Guignes,,Mairie de Guignes,+33 1 64 42 51 30,http://www.ville-de-guignes.fr,mairie.guignes@wanadoo.fr,21770222400015,2.8000600338,48.6403007507,  Rue de Meaux 77390 Guignes,yes,plain-pied,"Mo 14:00-17:00; Tu-Fr 09:00-11:45,14:00-17:00; Sa 09:00-11:45",77222,3c403121-1baa-4cd4-83a8-02fd2dde9607,node/4798915604
mairie,Mairie - Gurcy-le-Châtel,,Mairie de Gurcy-le-Châtel,+33 1 60 37 34 09,,mairie-gurcy-le-chatel@wanadoo.fr,21770223200018,3.085854,48.470534,  Place Raymond-Lambert 77520 Gurcy-le-Châtel,yes,,"Mo 08:30-12:30; Tu 08:30-09:15,14:00-18:00; We 08:30-12:00; Th 08:30-09:15,14:00-18:00; Fr 08:30-12:30",77223,da8205e4-4b2f-48db-aaca-a78d44304107,way/278778164
mairie,Mairie - Guérard,,Mairie de Guérard,+33 1 64 75 68 88,http://www.guerard.fr,mairie@guerard.fr,21770219000018,2.9582748,48.8244296,  Place de la Mairie 77580 Guérard,yes,plain-pied,Mo-Sa 09:00-12:00,77219,4b91e2bd-de1e-4f6c-88a0-5d0aaa77aa26,node/1227093802
mairie,Mairie - Hautefeuille,,Mairie d'Hautefeuille,+33 1 64 03 91 52,http://www.hautefeuille.fr,mairie.hautefeuille@laposte.net,21770224000011,2.96629810333,48.766368866,  Place de la Mairie 77515 Hautefeuille,limited,les personnes à mobilité réduite sont invitées à téléphoner au préalable,Mo-Tu 13:00-17:00; Th-Fr 13:30-17:00; Sa 09:00-12:00,77224,9bd6f079-9ebc-48eb-806a-304dd8ed4e58,way/148675450
mairie,Mairie - Hermé,,Mairie d'Hermé,+33 1 64 00 74 55,https://herme.fr,mairie@herme.fr,21770227300012,3.3494301,48.48327,  1 place de la Mairie 77114 Hermé,yes,plain-pied,Mo 16:00-19:00; Tu 16:00-18:00; We 11:00-12:00; Th 16:00-18:30,77227,d62279d4-fff5-452f-8b2a-3760884fbe93,way/184598254
mairie,Mairie - Hondevilliers,,Mairie d'Hondevilliers,+33 1 64 04 90 62,,mairie.hondevilliers@orange.fr,21770228100015,3.3081103,48.90064839999999,  34 route de la Butte-Rouge 77510 Hondevilliers,yes,,Fr 09:00-12:00,77228,e8af4888-122d-475c-9ac6-4e3299708ad5,way/202841484
mairie,Mairie - Héricy,,Mairie d'Héricy,+33 1 60 74 51 20,http://www.hericy.fr,mairie@hericy.fr,21770226500018,2.7649753,48.4489111,  6 rue de l'Église 77850 Héricy,yes,,"Mo-Fr 09:00-12:00,14:00-17:00; Sa 09:00-12:00",77226,922e2a6b-8981-4314-b123-c91b840a9a6b,way/161051928
mairie,Mairie - Ichy,,Mairie d'Ichy,+33 1 64 28 71 64,,ichy.mairie@wanadoo.fr,21770230700018,2.54724001884,48.2043991089,  8 rue d'Obsonville 77890 Ichy,yes,,Mo 16:00-17:30; Th 16:00-19:30,77230,e61aab56-fc18-4b5d-b5be-56f66c41db54,node/3878136793
mairie,Mairie - Iracoubo,,Mairie d'Iracoubo,+594 5 94 34 60 06,,ac.iracoubo@gmail.com,21973303700010,-53.212349,5.474074,  Place Edmé-Lama 97350 Iracoubo,no,,Mo-Fr 07:30-12:30,97303,3c93c068-d342-4f66-a086-f6a837478efc,way/299920668
mairie,Mairie - Isles-les-Meldeuses,,Mairie d'Isles-les-Meldeuses,+33 1 64 35 55 49,http://mairie-isles-les-meldeuses.fr,mairie.isles-les-meldeuses@laposte.net,21770231500011,3.006195,48.998414,  5 rue de la Gare 77440 Isles-les-Meldeuses,yes,plain-pied,Mo 09:00-12:00; We 09:00-12:00; Fr 09:00-12:00,77231,edd68eaf-8874-4fbf-9dff-3aa22fa8edc6,node/3394552036
mairie,Mairie - Isles-lès-Villenoy,,Mairie d'Isles-lès-Villenoy,+33 1 60 04 33 18,http://www.isleslesvillenoy.fr,mairie-isles@wanadoo.fr,21770232300015,2.82684993744,48.9113998413,  58 rue de Meaux 77450 Isles-lès-Villenoy,yes,rez-de-chaussée,"Mo 09:00-12:00,14:00-17:00; We 09:00-12:00; Fr 15:00-17:30; Sa 09:30-12:00",77232,d21a5a1e-ab4e-4941-8c98-5e0958383eeb,node/4798913775
mairie,Mairie - Iverny,,Mairie d'Iverny,+33 1 64 36 18 51,http://www.iverny.fr,mairie.iverny@wanadoo.fr,21770233100018,2.78799390793,48.9995918274,  5 rue du Bordeau 77165 Iverny,yes,plain-pied,"Mo 13:30-18:00; Tu 13:30-17:30; Th 08:30-12:30; Fr 08:30-12:30,13:30-18:00; Sa 10:00-12:00",77233,d4950b57-9d8c-49c5-b49c-56124bec00db,node/4035051195
mairie,Mairie - Jablines,,Mairie de Jablines,+33 1 60 43 81 16,http://www.jablines.fr,mairie@jablines.fr,21770234900010,2.76156997681,48.9184989929,  10 rue de la Mairie 77450 Jablines,yes,rampe,"Mo-Fr 09:00-12:00,14:00-16:00",77234,6bc365df-b7ac-497c-8d4b-3fba266808c9,node/3024644382
mairie,Mairie - Jaignes,,Mairie de Jaignes,+33 1 60 01 13 34,http://www.jaignes.fr,mairiejaignes@orange.fr,21770235600015,3.05250406265,48.9924659729,  18 rue de l'Abbaye 77440 Jaignes,yes,plain-pied,Mo 10:00-13:00; We 16:00-18:00,77235,d1e946df-131e-40b9-b54f-330f5dc72462,node/4798913786
mairie,Mairie - Jaulnes,,Mairie de Jaulnes,+33 1 60 67 14 89,,contact@mairie-jaulnes.com,21770236400019,3.27024006844,48.417301178,  6 rue du Courbeton 77480 Jaulnes,yes,,Tu 13:30-16:30; Fr 17:00-19:00,77236,63052fd2-4c29-49c9-877e-a37f98eb3614,node/4243151493
mairie,Mairie - Jossigny,,Mairie de Jossigny,+33 1 64 02 21 90,https://jossigny.fr/fr/,mairie@jossigny.fr,21770237200012,2.751449,48.838173,  Place de la Mairie 77600 Jossigny,yes,rez-de-chaussée,"Mo-Tu 09:00-12:00,14:00-17:00; We 09:00-12:00; Th 08:45-12:00,14:00-17:00; Fr 09:00-12:00,14:00-18:00",77237,0b0ccb97-71d5-4d33-85b4-614119693355,node/4798915856
mairie,Mairie - Jouarre,,Mairie de Jouarre,+33 1 60 24 26 26,http://www.jouarre.fr,contact@mairie-jouarre.fr,21770238000015,3.13038992882,48.9272003174,  Place Auguste-Tinchant 77640 Jouarre,yes,,"Mo-We 09:00-12:00,14:00-17:00; Th 14:00-17:00; Fr 09:00-12:00,14:00-17:00; Sa 09:00-12:00",77238,7193b1f7-fb04-4d4d-a9d2-d1d51a0e1382,way/116104968
mairie,Mairie - Jouy-le-Châtel,,Mairie de Jouy-le-Châtel,+33 1 64 01 50 31,http://www.jouylechatel.fr,accueil.jlc@orange.fr,21770239800017,3.1290977,48.6653749,  Place de l'Église 77970 Jouy-le-Châtel,yes,plain-pied,"Mo-Fr 08:30-12:30,14:00-17:00; Sa 09:00-12:00",77239,4f173847-fa56-43b9-92b4-8c25bdde8a3c,node/4798915902
mairie,Mairie - Jouy-sur-Morin,,Mairie de Jouy-sur-Morin,+33 1 64 04 07 07,http://www.jouy-sur-morin.fr,mairie@jouy-sur-morin.fr,21770240600018,3.2739896,48.7941683,  11 place du Bouloi 77320 Jouy-sur-Morin,limited,passer par la salle communale,"Mo 08:30-12:00,13:30-17:00; Tu 08:30-12:00; We 08:30-12:00,13:30-17:00; Th 08:30-12:00; Fr 08:30-12:00,13:30-17:00; Sa 10:00-12:00",77240,c440fb2d-97e8-4b28-bb31-c662d318cf9f,node/4798916227
mairie,Mairie - Juilly,,Mairie de Juilly,+33 1 64 36 23 32,http://www.juilly77.fr,mairie.juilly@wanadoo.fr,21770241400012,2.70549988747,49.0145988464,  8-10 rue Pierre-Loyer 77230 Juilly,yes,,"Mo-Tu 09:00-12:00,15:30-17:30; Th-Fr 09:00-12:00,15:30-17:30; Sa 09:00-12:00",77241,c34a4204-488a-4f7c-9cdd-3facfd5fb5d7,way/249305744
mairie,Mairie - Jutigny,,Mairie de Jutigny,+33 1 64 08 63 78,,mairie-de-jutigny@wanadoo.fr,21770242200015,3.2324441,48.4987642,  13 rue de l'Église 77650 Jutigny,yes,,Tu 13:45-17:00; Th 13:45-17:00; Sa 10:00-12:00,77242,80443674-10a6-4101-8cf2-08ed89bbc1e5,node/3974485343
mairie,Mairie - Kani-Kéli,,Mairie de Kani-Kéli,+262 2 69 62 17 31,,mairiedekanikeli@mairiedekanikeli.fr,20000880300013,45.104173,-12.957248,  1 rue de la Mairie 97625 Kani-Kéli,yes,,"Mo-Th 07:30-12:00,13:00-16:15; Fr 07:30-12:00",97609,56c7ea77-30b0-4871-a72e-a2ac69cd32be,node/3854441761
mairie,Mairie - Koungou,,Mairie de Koungou,+262 2 69 61 42 42,,contact@koungou.fr,20000881100016,45.2071,-12.7385,  1 place de La Liberté 97690 Koungou (Mayotte),no,,Mo-Th 07:30-15:00; Fr 07:30-12:00,97610,8c7b73f5-7964-42e0-b841-2eb7e6e9be79,node/7088130050
mairie,Mairie - Ajoupa-Bouillon,,Mairie d'Ajoupa-Bouillon,+596 5 96 53 32 22,,mairie.ajoupabouillon@wanadoo.fr,21972201400012,-61.1147547,14.8248643,  Le Bourg 97216 L'Ajoupa-Bouillon,yes,,"Mo-Tu 07:30-13:30,15:00-17:30; We 07:30-13:30; Th 07:30-13:30,15:00-17:30; Fr 07:30-13:30",97201,1e6fa274-9851-4fb6-82a4-51970221a4cd,way/125092614
mairie,Mairie - L'Étang-Salé,,Mairie de L'Étang-Salé,+262 2 62 33 43 33,https://www.letangsale.fr/,mairie@letangsale.fr,21974004000015,55.365804,-21.265063,  73 avenue Raymond-Barre 97427 L'Étang-Salé,yes,,"Mo-Fr 08:00-12:00,13:00-16:00",97404,48931056-a2ba-4eb1-b895-f9e93bdf4e68,way/134389169
mairie,Mairie - L'Île-Saint-Denis,,Mairie de L'Île-Saint-Denis,+33 1 49 22 11 00,http://www.lile-saint-denis.fr,mairie@lile-saint-denis.fr,21930039900017,2.33945989609,48.935798645,  1 rue Méchin 93450 L'Île-Saint-Denis,yes,rampe,"Sa 09:00-12:00; Mo-Fr 08:30-12:30,13:30-17:30",93039,c0063fb3-66af-47e7-8b8f-7464c8e7843a,way/63229797
mairie,Mairie - La Brosse-Montceaux,,Mairie de La Brosse-Montceaux,+33 1 64 32 23 07,https://labrossemontceaux.fr/,la-brosse-montceaux@wanadoo.fr,21770054100014,3.01851010323,48.3448982239,  27 rue Grande 77940 La Brosse-Montceaux,yes,plain-pied,"Tu 10:00-12:00,16:00-18:00; We 10:00-12:00; Fr 10:00-12:00,15:00-17:00",77054,631e4966-9ed6-43a6-975a-0b9653207211,way/292690761
mairie,Mairie - La Celle-sur-Morin,,Mairie de La Celle-sur-Morin,+33 1 64 04 70 65,https://www.la-celle-sur-morin.fr/,secretariat@lacellesurmorin.fr,21770063200011,2.96740007401,48.806098938,  1 rue d'En-Bas 77515 La Celle-sur-Morin,yes,,"Mo 08:30-11:30,13:30-16:00; Tu 13:30-16:00; Th 15:30-18:30; Fr 13:30-16:00; Sa 08:30-11:30",77063,b5d7eee8-b18e-4f4b-a166-258eec3e763b,node/9309443750
mairie,Mairie - La Chapelle-Gauthier,,Mairie de La Chapelle-Gauthier,+33 1 64 08 41 16,http://www.lachapellegauthier77.fr,mairie-la-chapelle-gauthier@orange.fr,21770086300012,2.90174007416,48.5503005981,  Place du Général-de-Gaulle 77720 La Chapelle-Gauthier,yes,,"Mo 16:00-18:00; We 10:00-12:00,14:00-17:00; Fr 16:00-18:00; Sa 09:00-12:00",77086,c98a41b8-2c66-4cfb-9189-f5bf504bf3dc,node/4798913787
mairie,Mairie - La Chapelle-Iger,,Mairie de La Chapelle-Iger,+33 1 64 25 68 09,,lachapelleiger@wanadoo.fr,21770087100015,2.98872590065,48.6525154114,  2 rue du Maréchal-Leclerc 77540 La Chapelle-Iger,no,,Tu 14:00-19:00; Sa 10:30-12:30,77087,2ab7e42f-10fd-45ee-a0db-229a61afb36e,node/4798916232
mairie,Mairie - La Chapelle-Moutils,,Mairie de La Chapelle-Moutils,+33 1 64 20 20 94,,mairie.chapellemoutils@laposte.net,21770093900010,3.39037799835,48.775188446,  21 rue des Tilleuls 77320 La Chapelle-Moutils,yes,,Tu 17:45-18:45; Fr 17:00-19:00,77093,8ecf4cc9-aa60-4a76-af9a-88e9b0ade9a0,way/148459803
mairie,Mairie - La Chapelle-Rablais,,Mairie de La Chapelle-Rablais,+33 1 64 08 40 74,http://www.la-chapelle-rablais.fr,accueil.mairie@la-chapelle-rablais.fr,21770089700010,2.97130990028,48.5121002197,  Place de l'Église 77370 La Chapelle-Rablais,yes,rampe d'accès,Tu 09:30-12:00; Fr 09:30-12:00; Mo 14:00-16:30; We 15:30-18:00; Th 14:00-16:30,77089,5e298ff1-37ac-4274-9205-65da3a7becd0,node/605241483
mairie,Mairie - La Chapelle-Saint-Sulpice,,Mairie de La Chapelle-Saint-Sulpice,+33 1 64 01 68 78,,mairie.chapellesaintsulpice@wanadoo.fr,21770090500011,3.17851996422,48.5546989441,  16 rue Creuse 77160 La Chapelle-Saint-Sulpice,yes,plain-pied,Tu 09:00-11:00; Fr 17:00-18:30,77090,82251ba8-666e-44ca-b9cc-6943b4818e77,way/148527340
mairie,Mairie - La Chapelle-la-Reine,,Mairie de La Chapelle-la-Reine,+33 1 60 74 96 01,http://www.lachapellelareine.fr,mairie@lachapellelareine.fr,21770088900017,2.56927990913,48.3160018921,  17 rue du Docteur-Battesti 77760 La Chapelle-la-Reine,yes,plain-pied,"Tu-We 08:30-12:30,13:15-17:30; Th 13:15-17:30; Fr 08:30-12:30,13:15-17:30",77088,c057bb2a-5d18-4c46-82e2-0afadeb1d7d5,node/2178593624
mairie,Mairie - La Courneuve,,Mairie de La Courneuve,+33 1 49 92 60 00,https://lacourneuve.fr,regards@ville-la-courneuve.fr,21930027400012,2.38913011551,48.9269981384,  Avenue de la République 93120 La Courneuve,yes,rampe,"Tu 13:30-17:30; Mo 08:30-12:00,13:30-17:30; We-Fr 08:30-12:00,13:30-17:30; Sa 08:30-12:00",93027,5e566cc0-af29-41b5-b979-44af8c4e1fb2,way/67177553
mairie,Mairie - La Croix-en-Brie,,Mairie de La Croix-en-Brie,+33 1 64 08 09 28,,mairie-la-croix-en-brie77@wanadoo.fr,21770147300019,3.07424998283,48.5928001404,  44 rue des Templiers 77370 La Croix-en-Brie,yes,rampe,Mo 16:00-18:00; Tu 17:00-19:00; Th 16:00-18:00; Fr 17:00-19:00,77147,b4a22ca7-eb5c-4141-a754-43b595bd4817,node/4798915920
mairie,Mairie - La Désirade,,Mairie de La Désirade,+590 5 90 20 01 76,https://www.mairie-ladesirade.fr/,,21971110800015,-61.0908086,16.3003325,  Place du Maire Mendiant 97127 La Désirade,yes,,"Mo-Tu 08:00-12:00,14:00-17:00; We 08:00-13:00; Th 08:00-12:00,14:00-17:00; Fr 08:00-13:00",97110,a6b02fe4-302e-4a4c-ae02-7ea780d38629,way/66514765
mairie,Mairie - La Ferté-Gaucher,,Mairie de La Ferté-Gaucher,+33 1 64 75 87 87,http://www.la-ferte-gaucher.org,info@la-ferte-gaucher.org,21770182000011,3.3056006,48.7809152,  1 place du Général-de-Gaulle 77320 La Ferté-Gaucher,yes,plain-pied,"Mo-We 08:30-12:00,13:30-17:00; Fr 08:30-12:00,13:30-17:00; Sa 08:30-12:00",77182,bf046ea3-8485-4907-bc87-c513aaee36a6,node/1505745193
mairie,Mairie - La Ferté-sous-Jouarre,,Mairie de La Ferté-sous-Jouarre,+33 1 60 22 25 63,https://www.la-ferte-sous-jouarre.fr/,service-courrier@lfsj.fr,21770183800013,3.129854,48.950342,  Place de l'Hôtel-de-Ville 77260 La Ferté-sous-Jouarre,yes,,"Mo 09:00-12:00,14:00-17:30; Tu 09:00-12:00; We 09:00-12:00,14:00-17:30; Th 09:00-12:00; Fr 09:00-12:00,14:00-17:00; Sa 09:00-12:00",77183,4b1a7b9c-3ebe-4838-902f-fb2a67e4853c,way/116091044
mairie,Mairie - La Genevraye,,Mairie de La Genevraye,+33 1 64 45 83 81,http://www.lagenevraye.fr,mairie@lagenevraye.fr,21770202600014,2.746877,48.320765,  3 route de Nemours 77690 La Genevraye,yes,rampe,Mo 10:00-12:00; Tu 16:30-19:00; Th 16:30-19:00; Fr 16:30-18:30,77202,a540095d-886e-4696-a999-73943a994d6e,node/4798915616
mairie,Mairie - La Grande-Paroisse,,Mairie de La Grande-Paroisse,+33 1 64 32 54 54,http://www.mairie-la-grande-paroisse.fr,accueil@lgp77.fr,21770210900018,2.90222001076,48.386100769,  Rue Grande 77130 La Grande-Paroisse,yes,rampe d'accès,"Mo 08:30-12:30,14:00-17:30; Tu 08:30-12:30,14:00-18:30; We-Fr 08:30-12:30,14:00-17:30; Sa 09:00-12:00",77210,a4b5c65a-c76b-4280-b255-6ac68d135c08,way/115213344
mairie,Mairie - La Haute-Maison,,Mairie de La Haute-Maison,+33 1 60 25 70 41,https://www.mairielahautemaison.fr,mairie.lahautemaison@orange.fr,21770225700015,3.0003001,48.8817716,  15 le Village 77580 La Haute-Maison,yes,,Tu 17:00-19:00; Fr 17:00-19:00; Sa 10:00-12:00,77225,0fbaf2a6-1cf7-48c5-9759-b459cad7a236,node/4072548387
mairie,Mairie - La Houssaye-en-Brie,,Mairie de La Houssaye-en-Brie,+33 1 64 07 41 27,http://www.lahoussayeenbrie.fr,mairie@lahoussayeenbrie.fr,21770229900017,2.87470006943,48.7540016174,  Place du Maréchal-Augereau 77610 La Houssaye-en-Brie,yes,rez-de-chaussée,"Mo 08:45-12:00,16:30-17:30; Tu 08:45-12:00,16:30-19:00; Th-Fr 08:45-12:00,16:30-17:30; Sa 08:45-11:30",77229,fe6b78be-9e62-4bdb-97fd-64c4528a75f2,node/4798916225
mairie,Mairie - La Madeleine-sur-Loing,,Mairie de La Madeleine-sur-Loing,+33 1 64 28 13 28,http://www.la-madeleine-sur-loing.fr,mairie.madeleinesurloing@orange.fr,21770267900010,2.7057800293,48.2036018372,  Place de la Mairie 77570 La Madeleine-sur-Loing,yes,plain-pied,Mo 17:00-19:00; Tu 08:00-12:00; Th 08:00-12:00; Fr 17:00-19:00,77267,14c0d83d-f0fc-4245-a5a5-88bc4e0a00f4,way/267500809
mairie,Mairie - La Plaine-des-Palmistes,,Mairie de La Plaine-des-Palmistes,+262 2 62 51 49 10,http://www.ville-plainedespalmistes.fr,mairie@plaine-des-palmistes.fr,21974006500012,55.6288605,-21.1342563,  230 rue de la République 97431 La Plaine-des-Palmistes,yes,,Mo-Th 08:00-16:30; Fr 08:00-12:00,97406,b18ca6c5-2f9c-4417-b9a3-2695c15a759d,way/67317511
mairie,Mairie - La Possession,,Mairie de La Possession,+262 2 62 22 20 02,https://www.lapossession.re,courrier@lapossession.re,21974008100019,55.335704,-20.932987,  Rue Waldeck-Rochet 97419 La Possession,yes,,Mo-Th 08:30-16:00; Fr 08:30-15:00,97408,c0c8de37-f768-4ab7-87ee-510c3b0896f0,way/147871237
mairie,Mairie - La Rochette,,Mairie de La Rochette,+33 1 64 83 55 55,http://www.ville-la-rochette.fr,mairie@larochette77.fr,21770389100010,2.6555718,48.5206659,  55 rue Rosa-Bonheur 77000 La Rochette,yes,plain-pied,"Mo-We 08:30-12:15,13:30-17:30; Th 13:30-17:30; Fr 08:30-12:15,13:30-16:15; Sa 09:00-12:00",77389,add99e18-f74f-473a-8ed9-4ed481803bbd,node/4798915878
mairie,Mairie - La Tombe,,Mairie de La Tombe,+33 1 64 31 33 50,https://www.latombe77.fr/,Secretariat@latombe77.fr,21770467500016,3.089656,48.388299,  18 rue Grande 77130 La Tombe,limited,sonnette et accueil au rez-de-chaussée,Fr 17:00-19:00,77467,d22f11c2-0a78-4b9f-98b5-94345c937710,node/4798915864
mairie,Mairie - La Trinité,,Mairie de La Trinité,+596 5 96 58 20 12,https://www.mairie-latrinite.fr/,contact@mairie-latrinite.fr,21972230300019,-60.962778,14.738553,  51 avenue Casimir-Branglidor 97220 La Trinité,yes,,"Mo 07:30-13:30,14:00-17:00; Tu-We 07:30-13:30; Th 07:00-13:30,14:00-17:00; Fr 07:30-13:30",97230,91224c84-fb42-4957-afd7-603a0cdebb29,way/287480575
mairie,Mairie - La Trétoire,,Mairie de La Trétoire,+33 1 64 04 53 37,,mairie-la-tretoire@wanadoo.fr,21770472500019,3.2959895,48.8761049,  Place de l'Église 77510 La Trétoire,yes,,Sa 09:00-11:30,77472,384181f1-9590-4701-a3f1-141364ba7017,node/1251218836
mairie,Mairie - Lagny-sur-Marne,,Mairie de Lagny-sur-Marne,+33 1 64 12 74 00,https://www.lagny-sur-marne.fr/,secretariat-general@lagny-sur-marne.fr,21770243000018,2.705566,48.877215,  2 place de l'Hôtel-de-Ville 77400 Lagny-sur-Marne,yes,"rampe, rez-de-chaussée","Mo-We 08:30-12:00,13:30-17:30; Th 08:30-12:00; Fr 08:30-12:00,13:30-17:30; Sa 09:00-12:00",77243,5c90f47d-e5ea-4e2b-9f44-78863808e6bd,relation/1585999
mairie,Mairie - Lamentin,,Mairie de Lamentin,+590 5 90 25 36 25,https://villelamentin971.fr/,,21971115700012,-61.635401,16.271208,  Rue de la République 97129 Lamentin,yes,,"Mo-Tu 08:00-12:45,14:00-17:30; We 08:00-13:00; Th 08:00-12:45,14:00-17:30; Fr 08:00-13:15",97115,4ff6951d-4333-4f9d-b4d7-50803cd5c57a,way/41586004
mairie,Mairie - Larchant,,Mairie de Larchant,+33 1 64 28 16 17,http://www.larchant.fr,village@larchant.fr,21770244800010,2.59755992889,48.2843017578,  2 place Pasteur 77760 Larchant,yes,plain-pied,Mo-Sa 10:30-12:00,77244,9acc8e99-ce6c-44fe-bc5f-c5a4e32de818,way/239285451
mairie,Mairie - Laval-en-Brie,,Mairie de Laval-en-Brie,+33 1 60 96 71 66,https://www.lavalenbrie.fr,mairie@lavalenbrie.fr,21770245500015,2.9977244,48.4244215,  2 rue de la Fontaine-de-l'Érable 77148 Laval-en-Brie,yes,plain-pied,"Mo 13:30-16:30; Tu 09:00-12:00,13:30-16:30; Th 09:00-12:00,14:00-17:00; Fr 09:00-12:00; Sa 10:00-12:00",77245,c372fc6f-35b5-40c6-b0ce-b32cc7c83e91,node/4798915916
mairie,Mairie - Le Blanc-Mesnil,,Mairie du Blanc-Mesnil,+33 1 45 91 70 70,https://www.blancmesnil.fr/,,21930007600011,2.463939,48.938835,  1 place Gabriel-Péri 93150 Le Blanc-Mesnil,yes,rampe,"Mo 09:00-12:30,14:00-17:30; Tu 14:00-17:30; We-Fr 09:00-12:30,14:00-17:15; Sa 09:00-11:45",93007,d2636c0d-5766-4ab1-925e-708f7aba3051,way/84289457
mairie,Mairie - Le Bourget,,Mairie du Bourget,+33 1 48 38 82 82,http://www.le-bourget.fr,,21930013400018,2.42577004433,48.9348983765,  65 avenue de la Division-Leclerc 93350 Le Bourget,yes,,"Sa 08:30-11:45; Mo-Fr 08:30-11:45,13:30-17:30",93013,c4a49ae6-5b35-4b63-b805-e7f8ba71cb17,way/79310436
mairie,Mairie - Le Carbet,,Mairie du Carbet,+596 5 96 78 00 40,https://www.villeducarbet.fr/,mairie@villeducarbet.fr,21972204800010,-61.183628,14.712403,  1 place Jules-Grevy 97221 Le Carbet,yes,,"Mo 07:00-13:00,14:30-17:00; Tu-We 07:00-13:00; Th 07:00-13:00,14:30-17:00; Fr 07:00-13:00",97204,11810d3d-56db-43f2-866a-075fa675f1a7,way/178860441
mairie,Mairie - Le Châtelet-en-Brie,,Mairie du Châtelet-en-Brie,+33 1 60 69 40 40,http://www.chatelet-en-brie.fr,mairie@chatelet-en-brie.fr,21770100200016,2.79365992546,48.5045013428,  Place de l'Hôtel-de-Ville 77820 Le Châtelet-en-Brie,yes,,"Mo-Fr 08:30-12:00,14:00-17:00; Sa 08:30-12:00",77100,999e6c94-c520-4541-820c-d8d36634fa3d,way/113312454
mairie,Mairie - Le Diamant,,Mairie du Diamant,+596 5 96 76 40 11,https://villedudiamant.fr/,contact@mairie-diamant.fr,21972206300019,-61.025507,14.479923,  45 rue Justin-Roc 97223 Le Diamant,yes,,"Mo 07:30-13:00,15:00-17:00; Tu-We 07:30-13:30; Th 07:30-13:00,15:00-17:00; Fr 07:30-13:30",97206,46489f37-863b-4e2f-9be6-790adbd3adb5,way/919944348
mairie,Mairie - Le François,,Mairie du François,+596 5 96 54 30 02,,service.courrier@ville-francois.fr,21972210500018,-60.887727,14.612674,  Place Charles-de-Gaulle 97240 Le François,yes,,"Mo 07:30-13:30,14:30-17:30; Tu-We 07:30-13:30; Th 07:30-13:30,14:30-17:30; Fr 07:30-13:30",97210,51f8f2f5-00d0-4f79-8544-031a8270fba9,way/177724734
mairie,Mairie - Le Gosier,,Mairie du Gosier,+590 5 90 84 86 86,https://www.villedugosier.fr/,courrier@villedugosier.fr,21971113200015,-61.4904644,16.2061387,  67 boulevard du Général-de-Gaulle 97190 Le Gosier,yes,,"Mo-Tu 07:30-13:00,14:30-17:00; We 07:30-13:00; Th 07:30-13:00,14:30-17:00; Fr 07:30-13:00",97113,2d2b93f5-c693-4682-9402-c95980c39aba,way/47005366
mairie,Mairie - Le Lamentin,,Mairie du Lamentin,+596 5 96 66 68 88,http://www.mairie-lelamentin.fr,contact@mairie-lelamentin.fr,21972213900017,-61.0014528036,14.6174507411,  Place Antonio-Macéo 97232 Le Lamentin,yes,,Mo 07:30-17:00; Tu-We 07:30-14:00; Th 07:30-17:00; Fr 07:30-14:00,97213,029e81ab-67d0-4fad-85ec-f8ac9212ce31,way/1101746564
mairie,Mairie - Le Lorrain,,Mairie du Lorrain,+596 5 96 53 44 22,https://villedulorrain.com/v2/,,21972214700010,-61.055546,14.832831,  19 rue Schoelcher 97214 Le Lorrain,no,,"Mo-Tu 07:00-13:00,14:00-17:00; We 07:00-13:00; Th 07:00-13:00,14:00-17:00; Fr 07:00-13:00",97214,25917ab3-62e8-49a4-87d9-cf8e880993bc,way/181135244
mairie,Mairie - Marigot,,Mairie de Marigot,+596 5 96 53 50 09,,ville@97225marigot.com,21972216200019,-61.0088969,14.7941234,  Lotissement La Marie 97225 Le Marigot,yes,,"Mo-Tu 08:00-12:00,14:00-17:30; We 08:00-13:30",97216,1b0c6a82-5e65-47f0-8f34-ec30ace3a0ed,way/125338094
mairie,Mairie - Le Marin,,Mairie du Marin,+596 5 96 74 90 02,,ville-marin@wanadoo.fr,21972217000012,-60.8708138,14.4714242,  26 rue Osman-Duquesnay 97290 Le Marin,yes,,"Mo 07:30-13:30,14:30-17:00; Tu-We 07:30-13:30; Th 07:30-13:30,14:30-17:00; Fr 07:30-13:30",97217,16158bbc-be57-4398-b93d-767449a971f1,way/287779465
mairie,Mairie - Le Mesnil-Amelot,,Mairie du Mesnil-Amelot,+33 1 60 03 51 18,http://www.lemesnilamelot.fr,mairie@lemesnilamelot.fr,21770291900010,2.5909,49.017176,  2 rue du Chapeau 77990 Le Mesnil-Amelot,yes,,"Mo-Tu 09:00-12:00,14:00-18:00; We 09:00-12:00; Th 09:00-12:00,14:00-18:00; Fr 09:00-12:00,14:00-17:00",77291,a4fe1607-be8f-45c2-a447-f82ae034796b,node/4798915586
mairie,Mairie - Le Morne-Rouge,,Mairie du Morne-Rouge,+596 5 96 52 30 23,,mairie@ville-mornerouge.fr,21972218800014,-61.1385059,14.7696428,  Avenue Edgard-Nestoret 97260 Le Morne-Rouge,yes,,"Mo 07:30-13:00,14:00-18:00; Tu-We 07:30-13:30; Th 07:30-13:00,14:00-18:00; Fr 07:30-13:30",97218,681274a5-9968-4d67-b80a-7f31d4665805,way/179325994
mairie,Mairie - Le Morne-Vert,,Mairie du Morne-Vert,+596 5 96 55 51 47,http://www.morne-vert.fr,mairie@morne-vert.fr,21972233700017,-61.1444,14.7069,  Rue Louis-Morin 97226 Le Morne-Vert,yes,par l'arrière de la mairie,"Mo 07:00-13:00,14:30-16:30; Tu-We 07:00-13:30; Th 07:00-13:00,14:30-16:30; Fr 07:00-13:00",97233,4aeb83c6-be08-4fd0-925b-462c914dd1ef,way/125354267
